name,type,full_address,city,country,latitude,longitude,rating,reviews,reviews_per_score_1,reviews_per_score_2,reviews_per_score_3,reviews_per_score_4,reviews_per_score_5,range
Zum Kochlöffel,Restaurant,"Friedrich-Ebert-Straße 41, 40210 Düsseldorf",Düsseldorf,Germany,51.22125,6.78982,4.5,116.0,0.0,2.0,9.0,29.0,76.0,€
BLOCK HOUSE Düsseldorf Hauptbahnhof Harkortstraße,Restaurant,"Harkortstraße 8, 40210 Düsseldorf",Düsseldorf,Germany,51.21945909999999,6.7920523,4.5,135.0,8.0,3.0,5.0,22.0,97.0,€€
Restaurant Schwarzes Meer,Mediterranean restaurant,"Graf-Adolf-Straße 60, 40210 Düsseldorf",Düsseldorf,Germany,51.219053,6.784688999999999,4.2,686.0,59.0,33.0,51.0,112.0,431.0,€€
Restaurant Da Bruno,Italian restaurant,"Karlstraße 16, 40210 Düsseldorf",Düsseldorf,Germany,51.2203695,6.7890144,4.6,425.0,9.0,3.0,25.0,67.0,321.0,€€
Tengri Tagh Uigur Restaurant,Chinese restaurant,"Oststraße 120, 40210 Düsseldorf",Düsseldorf,Germany,51.22152699999999,6.7857466,4.8,1932.0,44.0,23.0,41.0,105.0,1719.0,€€
ALCHEMIST Bistro & Bar,Restaurant,"Graf-Adolf-Straße 61, 40210 Düsseldorf",Düsseldorf,Germany,51.2187147,6.7860112,4.7,252.0,4.0,2.0,6.0,47.0,193.0,€€
Jaipur Prime Restaurant Düsseldorf,Indian restaurant,"Alexanderstraße 35, 40210 Düsseldorf",Düsseldorf,Germany,51.2198345,6.784113,4.5,524.0,18.0,17.0,34.0,81.0,374.0,
Astore,Italian restaurant,"Graf-Adolf-Straße 90, 40210 Düsseldorf",Düsseldorf,Germany,51.219631,6.788825,4.2,421.0,11.0,23.0,44.0,121.0,222.0,€€
Felfela Restaurant,Restaurant,"Worringer Str. 99, 40210 Düsseldorf",Düsseldorf,Germany,51.2233139,6.7952186,4.0,313.0,57.0,9.0,11.0,34.0,202.0,
Restaurant Antalya,Turkish restaurant,"Konrad-Adenauer-Platz 12, 40210 Düsseldorf",Düsseldorf,Germany,51.2199177,6.790834599999999,4.0,882.0,107.0,40.0,86.0,155.0,494.0,€
Lauren's Tapas Bar und Restaurant,Restaurant,"Bismarckstraße 62, 40210 Düsseldorf",Düsseldorf,Germany,51.2218972,6.787025099999999,4.1,476.0,38.0,16.0,48.0,109.0,265.0,€€
To1980 - Vietnamese Street Food,Vietnamese restaurant,"Graf-Adolf-Straße 70a, 40210 Düsseldorf",Düsseldorf,Germany,51.2191527,6.7860657,4.4,875.0,48.0,22.0,52.0,143.0,610.0,€€
Restaurant Pssst Bandido - Restaurante Mexicano,Mexican restaurant,"Adersstraße 46, 40215 Düsseldorf",Düsseldorf,Germany,51.2180979,6.7828461,4.4,1510.0,59.0,44.0,112.0,322.0,973.0,€€
Takumi,Ramen restaurant,"Immermannstraße 28, 40210 Düsseldorf",Düsseldorf,Germany,51.2236177,6.788777,4.6,5347.0,134.0,101.0,293.0,932.0,3887.0,€€
Sila-Thai,Restaurant,"Bahnstraße 76, 40210 Düsseldorf",Düsseldorf,Germany,51.2193249,6.785552,4.3,1256.0,70.0,40.0,96.0,268.0,782.0,€€€
Anadolu,Turkish restaurant,"Konrad-Adenauer-Platz 13, 40210 Düsseldorf",Düsseldorf,Germany,51.2196083,6.791111099999999,4.0,521.0,45.0,27.0,60.0,165.0,224.0,€
Jaipur Palace Thali Restaurant,Indian restaurant,"Bahnstraße 72, 40210 Düsseldorf",Düsseldorf,Germany,51.2194754,6.785414299999999,4.4,876.0,33.0,22.0,53.0,180.0,588.0,€€
Palazzo Pizzeria & Restaurant,Pizza restaurant,"Graf-Adolf-Straße 102, 40210 Düsseldorf",Düsseldorf,Germany,51.2198143,6.7899052,4.0,243.0,18.0,15.0,29.0,56.0,125.0,€€
Restaurant Setzkasten Düsseldorf,Fine dining restaurant,"Berliner Allee 52, 40212 Düsseldorf",Düsseldorf,Germany,51.2193183,6.783369,4.8,378.0,7.0,1.0,6.0,38.0,326.0,
Korean BBQ Restaurant Düsseldorf | Yoonsim,Korean restaurant,"Bismarckstraße 83, 40210 Düsseldorf",Düsseldorf,Germany,51.2209671,6.7886605,4.6,1150.0,34.0,18.0,42.0,135.0,921.0,€€
China Restaurant Tsun-Gai in Düsseldorf,Chinese restaurant,"Bahnstraße 72, 40210 Düsseldorf",Düsseldorf,Germany,51.2195176,6.7854173,4.2,510.0,39.0,23.0,45.0,107.0,296.0,€€
China Restaurant Hai Xian 海仙楼,Chinese restaurant,"Bahnstraße 65, 40210 Düsseldorf",Düsseldorf,Germany,51.21926269999999,6.7851114,4.4,465.0,25.0,12.0,32.0,79.0,317.0,
Frittenwerk Düsseldorf Hbf,Restaurant,"Konrad-Adenauer-Platz 14, 40210 Düsseldorf",Düsseldorf,Germany,51.2209661,6.7920389,4.1,222.0,18.0,12.0,25.0,41.0,126.0,€€
Restaurant da noi,Italian restaurant,"Graf-Adolf-Straße 25, 40212 Düsseldorf",Düsseldorf,Germany,51.21864,6.781621899999999,4.3,1458.0,75.0,40.0,113.0,393.0,837.0,€€
Medina Palace,Hamburger restaurant,"Worringer Str. 107, 40210 Düsseldorf",Düsseldorf,Germany,51.2229767,6.7949274,4.3,307.0,19.0,15.0,22.0,59.0,192.0,€
Buttershaker,American restaurant,"Worringer Str. 142, 40210 Düsseldorf",Düsseldorf,Germany,51.2218914,6.79453,4.2,1823.0,81.0,66.0,211.0,537.0,928.0,€€
Track 21,Chinese restaurant,"Friedrich-Ebert-Straße 43, 40210 Düsseldorf",Düsseldorf,Germany,51.2212136,6.7899406,4.1,342.0,30.0,12.0,41.0,86.0,173.0,€€
eatDOORI Restaurant - Moderne indische Küche,Modern Indian restaurant,"Immermannstraße 20, 40210 Düsseldorf",Düsseldorf,Germany,51.2239979,6.788054,4.0,384.0,40.0,26.0,42.0,76.0,200.0,€€
Nagomi - Japanese Restaurant,Japanese restaurant,"Bismarckstraße 53, 40210 Duesseldorf",Düsseldorf,Germany,51.2218271,6.7865822,4.5,466.0,17.0,13.0,25.0,93.0,318.0,€€€
Rajdarbaar Tandoori Indisches Restaurant,Indian restaurant,"Bahnstraße 63, 40210 Düsseldorf",Düsseldorf,Germany,51.2194408,6.7849518,4.2,460.0,36.0,26.0,34.0,98.0,266.0,€€
YoGi,Korean restaurant,"Grupellostraße 5, 40210 Düsseldorf",Düsseldorf,Germany,51.2209563,6.7859419,4.4,565.0,43.0,8.0,28.0,110.0,376.0,€€
Okinii Düsseldorf City,Sushi restaurant,"Immermannstraße 35, 40210 Düsseldorf",Düsseldorf,Germany,51.22333,6.788246,4.1,4625.0,341.0,249.0,506.0,1209.0,2320.0,€€
Anfora - türkisches Restaurant,Turkish restaurant,"Hüttenstraße 11, 40215 Düsseldorf",Düsseldorf,Germany,51.217651,6.7817814,4.4,679.0,46.0,18.0,43.0,103.0,469.0,€€
PHOENIX Restaurant & Weinbar,Restaurant,"Dreischeibenhaus 1, 40211 Düsseldorf",Düsseldorf,Germany,51.2277297,6.7824291,4.6,260.0,3.0,9.0,13.0,50.0,185.0,€€€€
To1980 VEGAN - Vietnamese Street Food,Vietnamese restaurant,"Immermannstraße 46, 40210 Düsseldorf",Düsseldorf,Germany,51.22283359999999,6.7903441,4.2,654.0,66.0,30.0,40.0,108.0,410.0,€€
VEGAN HALAL HELAL PIZZA DONER SELAM RESTAURANT,Restaurant,"Bismarckstraße 104, 40210 Düsseldorf",Düsseldorf,Germany,51.2205192,6.7907584,4.4,451.0,25.0,14.0,33.0,69.0,310.0,€
Seoul Restaurant,Korean restaurant,"Klosterstraße 45, 40211 Düsseldorf",Düsseldorf,Germany,51.2249869,6.7871114,4.5,793.0,38.0,15.0,42.0,132.0,566.0,€€
Dene & Gör,Turkish restaurant,"Graf-Adolf-Straße 58, 40210 Düsseldorf",Düsseldorf,Germany,51.2189845,6.784341899999999,4.4,1959.0,111.0,52.0,113.0,287.0,1396.0,€
Çiğköftem Düsseldorf Stadtmitte,Restaurant,"Graf-Adolf-Straße 68, 40210 Düsseldorf",Düsseldorf,Germany,51.2190715,6.7852656,4.6,375.0,17.0,8.0,15.0,43.0,292.0,€
Phox,Pho restaurant,"Stresemannstraße 32, 40210 Düsseldorf",Düsseldorf,Germany,51.2202897,6.7858155,4.8,359.0,4.0,4.0,13.0,33.0,305.0,
Grill House 56,Gyro restaurant,"Bismarckstraße 56, 40210 Düsseldorf",Düsseldorf,Germany,51.222115,6.7864722,4.6,938.0,30.0,14.0,34.0,152.0,708.0,€
Chuan Wei Chuan China Restaurant,Restaurant,"Bahnstraße 59, 40210 Düsseldorf",Düsseldorf,Germany,51.2195598,6.7846476,4.1,397.0,39.0,18.0,35.0,81.0,224.0,€€
China-Restaurant Dschunke,Chinese restaurant,"Charlottenstraße 59, 40210 Düsseldorf",Düsseldorf,Germany,51.22226269999999,6.7895312,4.2,591.0,45.0,27.0,38.0,148.0,333.0,€€
Sulbam,Restaurant,"Bismarckstraße 37, 40210 Düsseldorf",Düsseldorf,Germany,51.2223435,6.7850743,4.0,23.0,3.0,2.0,0.0,4.0,14.0,
My Noodlehouse,Japanese restaurant,"Eingang, Bismarckstraße 54A, Oststraße 109, 40210 Düsseldorf",Düsseldorf,Germany,51.222362,6.786057,4.6,898.0,16.0,16.0,47.0,148.0,671.0,€€
POZANGMATCHA,Korean restaurant,"Oststraße 139, 40210 Düsseldorf",Düsseldorf,Germany,51.22090799999999,6.7848698,4.5,603.0,22.0,11.0,44.0,108.0,418.0,€€
Restaurant Kö59,Restaurant,"Königsallee 59, 40215 Düsseldorf",Düsseldorf,Germany,51.2204625,6.777712999999999,4.5,40.0,1.0,1.0,5.0,5.0,28.0,
Kushi-Tei of Tokyo,Japanese restaurant,"Immermannstraße 38, 40210 Düsseldorf",Düsseldorf,Germany,51.2232202,6.789663099999999,4.5,1655.0,65.0,40.0,82.0,346.0,1122.0,€€
Yabase,Japanese restaurant,"Klosterstraße 70, 40211 Düsseldorf",Düsseldorf,Germany,51.22479629999999,6.7887578,4.6,1315.0,40.0,19.0,55.0,233.0,968.0,€€€
Athina by Joulis Kitchen,Greek restaurant,"Oststraße 49, 40211 Düsseldorf",Düsseldorf,Germany,51.2253468,6.7882909,4.5,156.0,10.0,7.0,4.0,11.0,124.0,€€
Antalya Doner,Turkish restaurant,"Konrad-Adenauer-Platz 10, 40210 Düsseldorf",Düsseldorf,Germany,51.2204992,6.791660299999999,4.4,291.0,15.0,6.0,27.0,42.0,201.0,€
Salemi Einzelhandel mit Feinkost,Italian restaurant,"Bismarckstraße 37, 40210 Düsseldorf",Düsseldorf,Germany,51.2223345,6.785054499999999,4.3,13.0,0.0,0.0,3.0,3.0,7.0,
Korea House Restaurant,Korean restaurant,"Bismarckstraße 66, 40210 Düsseldorf",Düsseldorf,Germany,51.221875,6.7870389,4.3,1998.0,87.0,62.0,167.0,466.0,1216.0,€€
Ha Noi Pho,Vietnamese restaurant,"Graf-Adolf-Straße 58, 40210 Düsseldorf",Düsseldorf,Germany,51.2189883,6.7844444,4.4,332.0,17.0,11.0,20.0,54.0,230.0,
Huong Viet,Vietnamese restaurant,"Adersstraße 48, 40215 Düsseldorf",Düsseldorf,Germany,51.2181696,6.783061099999999,4.2,174.0,7.0,6.0,18.0,51.0,92.0,€
Restaurant Safran,Persian restaurant,"Pempelforter Str. 45, 40211 Düsseldorf",Düsseldorf,Germany,51.228929,6.791015199999999,4.1,728.0,70.0,20.0,65.0,153.0,420.0,€€
Naniwa Noodles & Soups,Authentic Japanese restaurant,"Oststraße 55, 40211 Düsseldorf",Düsseldorf,Germany,51.2249515,6.7881079,4.5,3924.0,124.0,97.0,244.0,808.0,2651.0,
What's Beef,Hamburger restaurant,"Immermannstraße 24, 40210 Düsseldorf",Düsseldorf,Germany,51.2237527,6.7885661,4.2,3945.0,77.0,263.0,470.0,974.0,2161.0,€€
Urfa Lahmacun,Turkish restaurant,"Graf-Adolf-Straße 72, 40210 Düsseldorf",Düsseldorf,Germany,51.2191512,6.7861664,4.2,612.0,37.0,26.0,57.0,131.0,361.0,€
Gin Seng Koreanisches Restaurant,Korean restaurant,"Oststraße 63, 40210 Düsseldorf",Düsseldorf,Germany,51.2243801,6.787598399999999,4.2,371.0,28.0,15.0,31.0,81.0,216.0,€€
GREENKARMA,Restaurant,"Immermannstraße 18, 40210 Düsseldorf",Düsseldorf,Germany,51.2243694,6.787379199999999,4.5,376.0,16.0,8.0,24.0,35.0,293.0,€€
Sushibar Fujiyama,Sushi restaurant,"Bahnstraße 62, 40210 Düsseldorf",Düsseldorf,Germany,51.219865,6.784579799999999,4.3,388.0,24.0,11.0,33.0,82.0,238.0,€€
Basil's Restaurant & Bar,Mediterranean restaurant,"Haroldstraße 30, 40213 Düsseldorf",Düsseldorf,Germany,51.21920129999999,6.7745035,4.2,504.0,28.0,22.0,51.0,131.0,272.0,€€
Gogi Matcha Düsseldorf,Korean restaurant,"Bismarckstraße 33, 40210 Düsseldorf",Düsseldorf,Germany,51.2224047,6.7849254,4.3,869.0,33.0,32.0,66.0,228.0,510.0,€€
Brewery Schumacher,Brewery,"Oststraße 123, 40210 Düsseldorf",Düsseldorf,Germany,51.2215533,6.785279999999999,4.3,1581.0,117.0,45.0,73.0,343.0,1003.0,
Barco Lounge Bar,Restaurant,"Charlottenstraße 51, 40210 Düsseldorf",Düsseldorf,Germany,51.2219875,6.789060999999999,4.4,746.0,19.0,19.0,66.0,202.0,440.0,€€
小龙坎 杜塞尔多夫店 - Xiaolongkan Düsseldorf - Xiao long kan - Shoo loong kan hotpot,Chinese restaurant,"Friedrich-Ebert-Straße 31, 40210 Düsseldorf",Düsseldorf,Germany,51.2214687,6.789351099999999,4.6,361.0,14.0,1.0,21.0,36.0,289.0,
EssBar - fein & pfiffig,Restaurant,"Kaiserstraße 27, 40479 Düsseldorf",Düsseldorf,Germany,51.2335077,6.7787475,4.6,127.0,3.0,3.0,8.0,19.0,94.0,€€
Tokyo Lounge,Authentic Japanese restaurant,"Berliner Allee 56, 40212 Düsseldorf",Düsseldorf,Germany,51.2181168,6.78235,4.0,2010.0,158.0,109.0,206.0,541.0,996.0,€€€
Burgery-Pizzary,Hamburger restaurant,"Graf-Adolf-Straße 70a, 40210 Düsseldorf",Düsseldorf,Germany,51.2191602,6.7861161,4.3,508.0,72.0,9.0,15.0,18.0,394.0,
China Restaurant Three Kingdoms,Chinese restaurant,"Stresemannstraße 4, 40210 Düsseldorf",Düsseldorf,Germany,51.22165709999999,6.7832744,4.4,612.0,40.0,9.0,33.0,132.0,398.0,€€
Phoenix Restaurant,Vietnamese restaurant,"Herzogstraße 5, 40217 Düsseldorf",Düsseldorf,Germany,51.2154702,6.7759161,4.2,186.0,22.0,6.0,8.0,20.0,130.0,€
eatTOKYO immermann,Japanese restaurant,"Immermannstraße 40, 40210 Düsseldorf",Düsseldorf,Germany,51.2232794,6.790017499999999,4.4,1069.0,49.0,38.0,63.0,247.0,672.0,€€
Soba-An,Japanese restaurant,"Klosterstraße 68, 40211 Düsseldorf",Düsseldorf,Germany,51.2249778,6.787851099999999,4.5,477.0,15.0,9.0,30.0,101.0,322.0,€€
"Brauerei Zum Schiffchen, Düsseldorf",Brewpub,"Hafenstraße 5, 40213 Düsseldorf",Düsseldorf,Germany,51.22374019999999,6.7721528,4.1,2223.0,124.0,108.0,251.0,687.0,1053.0,€€
Yaki-The-Emon,Okonomiyaki restaurant,"Klosterstraße 72, 40211 Düsseldorf",Düsseldorf,Germany,51.2247321,6.788924799999999,4.6,1047.0,19.0,14.0,47.0,199.0,768.0,€€
Schwan Restaurant Düsseldorf Altstadt,German restaurant,"Mühlenstraße 2, 40213 Düsseldorf",Düsseldorf,Germany,51.227311,6.7722371,4.2,2034.0,54.0,65.0,234.0,719.0,962.0,€€
Halal Homemade Food,Halal restaurant,"Worringer Str. 99, 40210 Düsseldorf",Düsseldorf,Germany,51.2232824,6.7950735,4.5,39.0,1.0,1.0,3.0,6.0,28.0,
Takumi-Plus+,Japanese restaurant,"Immermannstraße 23, 40210 Düsseldorf",Düsseldorf,Germany,51.2238322,6.7871656,4.3,8.0,0.0,0.0,2.0,2.0,4.0,
Münstermann Kontor,Restaurant,"Hohe Str. 11, 40213 Düsseldorf",Düsseldorf,Germany,51.2223023,6.7740329,4.8,574.0,5.0,3.0,8.0,74.0,484.0,€€
beets&roots | Düsseldorf,Restaurant,"Immermannstraße 20, 40210 Düsseldorf",Düsseldorf,Germany,51.2239875,6.7880473,4.3,69.0,7.0,3.0,2.0,7.0,50.0,€€
Cafe Dalma,Turkish restaurant,"Graf-Adolf-Straße 67, 40210 Düsseldorf",Düsseldorf,Germany,51.21870029999999,6.7878732,4.0,1.0,0.0,0.0,0.0,1.0,0.0,
Agata's Restaurant,Fine dining restaurant,"Kirchfeldstraße 59, 40217 Düsseldorf",Düsseldorf,Germany,51.2122823,6.7759978,4.7,223.0,5.0,4.0,3.0,28.0,183.0,
Café Bonema,Cafe,"Graf-Adolf-Straße 98, 40210 Düsseldorf",Düsseldorf,Germany,51.2196918,6.789538899999999,4.0,117.0,12.0,5.0,12.0,27.0,61.0,€€
HotPot Fu 富春园火锅,Hot pot restaurant,"Stresemannstraße 46, 40210 Düsseldorf",Düsseldorf,Germany,51.2198266,6.7871006,4.2,836.0,57.0,33.0,57.0,213.0,476.0,€€
Nagaya,Japanese restaurant,"Klosterstraße 42, 40211 Düsseldorf",Düsseldorf,Germany,51.225404,6.7861391,4.7,425.0,10.0,6.0,21.0,42.0,346.0,€€€€
HeimWerk Altstadt,German restaurant,"Hafenstraße 9, 40213 Düsseldorf",Düsseldorf,Germany,51.223831,6.7723108,4.5,1219.0,50.0,28.0,69.0,243.0,829.0,€€
K Restaurant,Restaurant,"Wilhelm-Tell-Straße 1a, 40219 Düsseldorf",Düsseldorf,Germany,51.21459429999999,6.766290199999999,4.0,484.0,37.0,26.0,57.0,161.0,203.0,€€
Fruit & Pleasure,Vegetarian restaurant,"Stresemannstraße 29, 40210 Düsseldorf",Düsseldorf,Germany,51.2202439,6.7854224,4.8,91.0,1.0,0.0,2.0,10.0,78.0,€€
Weinhaus Tante Anna,Restaurant,"Andreasstraße 2, 40213 Düsseldorf",Düsseldorf,Germany,51.2270694,6.773662499999999,4.5,226.0,8.0,5.0,14.0,32.0,167.0,€€€
Los Chicos Düsseldorf,Spanish restaurant,"Andreasstraße 7-9, 40213 Düsseldorf",Düsseldorf,Germany,51.2269678,6.7740601,4.2,488.0,51.0,18.0,36.0,78.0,305.0,
Tokyo Ramen Takeichi （Bismarckstraße 67）,Japanese restaurant,"Bismarckstraße 67, 40210 Düsseldorf",Düsseldorf,Germany,51.2214349,6.7873113,4.7,212.0,3.0,3.0,8.0,26.0,172.0,
Rubens,Restaurant,"Kaiserstraße 5, 40479 Düsseldorf",Düsseldorf,Germany,51.2346193,6.777977099999999,4.8,283.0,5.0,2.0,6.0,22.0,248.0,€€
Takumi 6th Spicy Tan Tan Men,Japanese restaurant,"Immermannstraße 32, 40210 Düsseldorf",Düsseldorf,Germany,51.2234451,6.7892636,4.3,229.0,14.0,7.0,14.0,48.0,146.0,€€
Yede-Gör,Kebab shop,"Worringer Str. 104, 40210 Düsseldorf",Düsseldorf,Germany,51.2234905,6.7959061,4.3,582.0,38.0,24.0,43.0,102.0,375.0,€
Kagaya,Japanese restaurant,"Charlottenstraße 60, 40210 Düsseldorf",Düsseldorf,Germany,51.2212336,6.7879172,4.5,524.0,8.0,12.0,41.0,127.0,336.0,€€
Zero Banchi,Japanese restaurant,"Immermannstraße 34, 40210 Düsseldorf",Düsseldorf,Germany,51.2233957,6.789406899999999,4.5,62.0,3.0,1.0,3.0,9.0,46.0,
Libanon Restaurant,Lebanese restaurant,"Berger Str. 19-21, 40213 Düsseldorf",Düsseldorf,Germany,51.2243715,6.772310699999999,4.0,2273.0,245.0,87.0,292.0,553.0,1096.0,€€
Cuccini mediterranean & persian cuisine,Persian restaurant,"Hüttenstraße 30, 40215 Düsseldorf",Düsseldorf,Germany,51.2169411,6.7836506,4.0,882.0,131.0,34.0,68.0,161.0,488.0,€€
Maruyasu Immermann,Japanese restaurant,"Immermannstraße 11, 40210 Düsseldorf",Düsseldorf,Germany,51.2245943,6.785600199999999,4.5,1105.0,21.0,24.0,75.0,259.0,726.0,€€
Brasserie Stadthaus,French restaurant,"Mühlenstraße 31, 40213 Düsseldorf",Düsseldorf,Germany,51.2274435,6.774245199999999,4.6,332.0,10.0,6.0,11.0,62.0,243.0,€€€
Café de Bretagne,Seafood restaurant,"Benrather Str. 7, 40213 Düsseldorf",Düsseldorf,Germany,51.2229993,6.7727564,4.5,527.0,23.0,8.0,28.0,101.0,367.0,€€
20° RESTOBAR,Spanish restaurant,"Mutter-Ey-Platz 3, Neubrückstraße, 40213 Düsseldorf",Düsseldorf,Germany,51.2281379,6.7750892,4.4,759.0,22.0,24.0,47.0,165.0,501.0,€€€
Louisiana Düsseldorf Altstadt,American restaurant,"Bolkerstraße 18, 40213 Düsseldorf",Düsseldorf,Germany,51.2261455,6.7733459,4.0,2559.0,205.0,102.0,327.0,758.0,1167.0,€€
NOOIJ DUTCH DELI,Dutch restaurant,"Erkrather Str. 30, 40233 Düsseldorf",Düsseldorf,Germany,51.2242481,6.7998303,4.5,647.0,23.0,18.0,36.0,131.0,439.0,€€
5 P,Restaurant,"Kiefernstraße 2, 40233 Düsseldorf",Düsseldorf,Germany,51.21801749999999,6.808047999999999,4.8,93.0,1.0,1.0,4.0,7.0,80.0,
The Duchy,Restaurant,"Breidenbacher Hof Düsseldorf, Heinrich-Heine-Allee 36, 40213 Düsseldorf",Düsseldorf,Germany,51.2251937,6.7772332,4.7,332.0,3.0,7.0,7.0,51.0,264.0,€€€
Bar Olio,Italian restaurant,"Schirmerstraße 54, 40211 Düsseldorf",Düsseldorf,Germany,51.2311172,6.7948431,4.0,821.0,101.0,36.0,56.0,166.0,462.0,€€
dreiRaum Bistro,Restaurant,"Volksgartenstraße 15, 40227 Düsseldorf",Düsseldorf,Germany,51.2115209,6.793239799999999,4.5,659.0,12.0,19.0,32.0,171.0,425.0,€€
Kasematten Düsseldorf,Restaurant,40213 Düsseldorf,Düsseldorf,Germany,51.2258875,6.770811699999999,4.0,4292.0,410.0,188.0,456.0,1240.0,1998.0,€€
Waya Kitchen,Restaurant,"Platanenstraße 21, 40233 Düsseldorf",Düsseldorf,Germany,51.2275421,6.8084891,4.5,203.0,8.0,6.0,13.0,20.0,156.0,€€
Restaurant Layali,Restaurant,"Brunnenstraße 43, 40223 Düsseldorf",Düsseldorf,Germany,51.2057661,6.779482799999999,4.6,555.0,16.0,7.0,21.0,81.0,430.0,€€
Tonkatsu GONTA by Café Relax,Tonkatsu restaurant,"Immermannstraße 28, 40210 Düsseldorf",Düsseldorf,Germany,51.223562,6.788918,4.6,615.0,14.0,12.0,28.0,127.0,434.0,
Schwan Restaurant Düsseldorf Pempelfort,German restaurant,"Sternstraße 50, 40479 Düsseldorf",Düsseldorf,Germany,51.2350238,6.7823743,4.3,463.0,12.0,13.0,64.0,129.0,245.0,€€
ROBERT.,French restaurant,"Rathausufer 10, 40213 Düsseldorf",Düsseldorf,Germany,51.2253184,6.7705612,4.6,494.0,22.0,4.0,14.0,81.0,373.0,€€
台灣寶島美食 ILHA FORMOSA Gourmet（Dusseldorf）,Restaurant,"Charlottenstraße 50, 40210 Düsseldorf",Düsseldorf,Germany,51.221006,6.787656,4.4,444.0,22.0,11.0,30.0,86.0,295.0,€€
PONG - Popkultur & Gastro,Restaurant,"Ehrenhof 2, 40479 Düsseldorf",Düsseldorf,Germany,51.2334202,6.772052299999999,4.1,46.0,5.0,4.0,0.0,10.0,27.0,
Menora Lounge - Bar,Restaurant,"Bismarckstraße 69, 40210 Düsseldorf",Düsseldorf,Germany,51.2213948,6.7875432,4.3,92.0,7.0,4.0,5.0,15.0,61.0,€€
Gaststätte Geissel,Restaurant,"Aachener Str. 58, 40223 Düsseldorf",Düsseldorf,Germany,51.204353,6.773484,4.2,450.0,19.0,12.0,50.0,147.0,222.0,€€
Lido Malkasten,Restaurant,"Jacobistraße 6, 40211 Düsseldorf",Düsseldorf,Germany,51.2297392,6.7877052,4.3,266.0,12.0,12.0,18.0,66.0,158.0,
Kytaro,Restaurant,"Grafenberger Allee 119, 40237 Düsseldorf",Düsseldorf,Germany,51.2311422,6.8066245,4.3,979.0,53.0,38.0,68.0,204.0,616.0,
Mr. Phung,Chinese restaurant,"SEVENS, Königsallee 56, 40212 Düsseldorf",Düsseldorf,Germany,51.2224649,6.779937899999999,4.1,178.0,15.0,8.0,14.0,56.0,85.0,€
Frango Português,Portuguese restaurant,"Erkrather Str. 224, 40233 Düsseldorf",Düsseldorf,Germany,51.2192813,6.8142587,4.3,2275.0,106.0,80.0,176.0,519.0,1394.0,€€
Eiscafé Stefan,Cafe,"Worringer Str. 98, 40210 Düsseldorf",Düsseldorf,Germany,51.2243147,6.7961899,4.6,137.0,1.0,1.0,9.0,28.0,98.0,€€
Lay Thai Restaurant & Lounge,Thai restaurant,"Weseler Str. 35, 40239 Düsseldorf",Düsseldorf,Germany,51.2399686,6.799770499999999,4.9,798.0,6.0,6.0,15.0,46.0,725.0,
MEERBAR Restaurant,Seafood restaurant,"Neuer Zollhof 1, 40221 Düsseldorf",Düsseldorf,Germany,51.2161667,6.7572861,4.1,2354.0,228.0,109.0,204.0,519.0,1294.0,€€€
Fleischfrei,Takeout restaurant,"256, Stadtbezirk 3, Oberbilker Allee, 40227 Düsseldorf",Düsseldorf,Germany,51.2099676,6.803968599999999,4.3,316.0,25.0,11.0,18.0,37.0,225.0,€€
Bouya Coffee Supreme,Cafe,"Oststraße 124, 40210 Düsseldorf",Düsseldorf,Germany,51.2211821,6.785557,4.5,129.0,9.0,4.0,1.0,10.0,105.0,
Byliny,Restaurant,"Konkordiastraße 85, 40219 Düsseldorf",Düsseldorf,Germany,51.2127996,6.7665348,4.6,293.0,6.0,8.0,10.0,38.0,231.0,€€
Ab der Fisch,Restaurant,"Moltkestraße 124, 40479 Düsseldorf",Düsseldorf,Germany,51.2364994,6.793538,4.2,958.0,38.0,30.0,97.0,307.0,486.0,€€
Stappen Düsseldorf,Restaurant,"Luegallee 50, 40545 Düsseldorf",Düsseldorf,Germany,51.2317838,6.7558378,4.5,278.0,6.0,3.0,21.0,63.0,185.0,€€€
Restaurant DEN,Sushi restaurant,"Hohenzollernallee 8d, 40235 Düsseldorf",Düsseldorf,Germany,51.2336986,6.824167099999999,4.7,387.0,9.0,5.0,20.0,37.0,316.0,€€
QOMO Restaurant & Bar,Fusion restaurant,"Stromstraße 20, 40221 Düsseldorf",Düsseldorf,Germany,51.2179423,6.7616801,4.6,1062.0,37.0,30.0,45.0,143.0,807.0,€€€
Restaurant Le Flair,Fine dining restaurant,"Marc-Chagall-Straße 108, 40477 Düsseldorf",Düsseldorf,Germany,51.23936459999999,6.794290999999999,4.7,174.0,4.0,3.0,4.0,25.0,138.0,€€€€
Prinzinger by SAITTAVINI,Italian restaurant,"Leostraße 1a, 40545 Düsseldorf",Düsseldorf,Germany,51.2318161,6.760911999999999,4.5,298.0,10.0,4.0,18.0,58.0,208.0,€€€
Staudi's Restaurant,Restaurant,"Münsterstraße 115, 40476 Düsseldorf",Düsseldorf,Germany,51.24494259999999,6.7890171,4.9,83.0,1.0,0.0,0.0,6.0,76.0,
Zweierlei,Restaurant,"Schwerinstraße 40, 40477 Düsseldorf",Düsseldorf,Germany,51.2403482,6.7778297,4.3,63.0,6.0,3.0,5.0,4.0,45.0,
SABO Restaurant Düsseldorf,Turkish restaurant,"Grunerstraße 42a, 40239 Düsseldorf",Düsseldorf,Germany,51.24359,6.801998999999999,4.6,434.0,7.0,12.0,23.0,65.0,327.0,€€
Cafe Extrablatt,Cafe,"Grünstraße 15, 40212 Düsseldorf",Düsseldorf,Germany,51.22111109999999,6.7811112,4.1,1285.0,91.0,55.0,137.0,381.0,621.0,€€
MAHARAJA indisches Restaurant Düsseldorf,Indian restaurant,"Himmelgeister Str. 63, 40225 Düsseldorf",Düsseldorf,Germany,51.2008853,6.7811308,4.4,598.0,25.0,25.0,32.0,105.0,411.0,€€
DOX Restaurant & Bar,European restaurant,"Speditionstraße 19, 40221 Düsseldorf",Düsseldorf,Germany,51.2164684,6.7527707,4.1,400.0,38.0,23.0,26.0,83.0,230.0,
Andreas Quartier - Das Wohnzimmer Düsseldorfs,Restaurant,"Mühlenstraße 34, 40213 Düsseldorf",Düsseldorf,Germany,51.2278254,6.774410199999999,4.2,125.0,10.0,6.0,9.0,21.0,79.0,
Schwan Restaurant Düsseldorf Derendorf,German restaurant,"Frankenstraße 1, 40476 Düsseldorf",Düsseldorf,Germany,51.2482713,6.7770316,4.2,970.0,28.0,26.0,124.0,317.0,475.0,€€
Namu Café,Cafe,"Oststraße 124, 40210 Düsseldorf",Düsseldorf,Germany,51.2211158,6.785503599999999,4.4,782.0,31.0,15.0,48.0,182.0,506.0,€€
Da Clà Restaurant,Italian restaurant,"Kaistraße 17, 40221 Düsseldorf",Düsseldorf,Germany,51.215435,6.756142,4.6,289.0,4.0,9.0,12.0,50.0,214.0,
Ashley's Restaurant,Modern European restaurant,"Karl-Kleppe-Straße 20, 40474 Düsseldorf",Düsseldorf,Germany,51.2537111,6.755516699999999,4.6,107.0,3.0,1.0,5.0,17.0,81.0,
Beluga Restaurant,Russian restaurant,"Grafenberger Allee 277, 40237 Düsseldorf",Düsseldorf,Germany,51.233932,6.8185832,4.5,559.0,33.0,9.0,22.0,81.0,414.0,€€
riva restaurant & bar,Italian restaurant,"Zollhof 11, 40221 Düsseldorf",Düsseldorf,Germany,51.2146327,6.7542851,4.1,1029.0,112.0,42.0,70.0,240.0,565.0,€€€
das KARL,Cafe,"Karlstraße 94, 40210 Düsseldorf",Düsseldorf,Germany,51.2226,6.79209,4.4,429.0,27.0,18.0,20.0,53.0,311.0,€€
Mezzomar Düsseldorf Classic Remise,Italian restaurant,"Harffstraße 110a, 40591 Düsseldorf",Düsseldorf,Germany,51.1952836,6.8237714,4.3,1230.0,91.0,42.0,69.0,230.0,798.0,€€
Konditorei Heinemann,Restaurant,"Bahnstraße 16, 40212 Düsseldorf",Düsseldorf,Germany,51.21986829999999,6.7806828,4.5,1287.0,31.0,30.0,94.0,282.0,850.0,€€
Damla Baklava Dusseldorf,Pastry shop,"Graf-Adolf-Straße 71, 40210 Düsseldorf",Düsseldorf,Germany,51.2189226,6.787229399999999,4.0,785.0,91.0,46.0,85.0,141.0,422.0,€€
Restaurant Gioia,Italian restaurant,"Staufenpl. 7, 40629 Düsseldorf",Düsseldorf,Germany,51.2413993,6.8295923,4.6,515.0,12.0,5.0,26.0,98.0,374.0,€€
The ASH Düsseldorf,Restaurant,"Kaiserswerther Str. 215, 40474 Düsseldorf",Düsseldorf,Germany,51.24901149999999,6.7664689,4.1,1696.0,123.0,91.0,177.0,375.0,930.0,€€€
Ca' del Re,Italian restaurant,"Am Röttchen 67a, 40468 Düsseldorf",Düsseldorf,Germany,51.2703988,6.7851319,4.7,756.0,9.0,13.0,24.0,119.0,591.0,€
Trattoria DA ZIO,Italian restaurant,"Roßstraße 71, 40476 Düsseldorf",Düsseldorf,Germany,51.2461484,6.7793262,4.3,620.0,27.0,20.0,49.0,157.0,367.0,€€
Tante Anna,Restaurant,"Kölner Landstraße 370, 40589 Düsseldorf",Düsseldorf,Germany,51.178731,6.828762999999999,4.5,243.0,7.0,2.0,12.0,64.0,158.0,€€
Kaffeerösterei Röstzeit,Cafe,"Oststraße 115, 40210 Düsseldorf",Düsseldorf,Germany,51.2218722,6.7856041,4.7,490.0,7.0,6.0,16.0,85.0,376.0,€€
Restaurant Herr Knillmann,German restaurant,"Alter Markt 1a, 40625 Düsseldorf",Düsseldorf,Germany,51.2363306,6.8625433,4.3,947.0,38.0,38.0,88.0,235.0,548.0,€€
Reinhardt's Restaurant,Restaurant,"Am Gartenkamp 20, 40629 Düsseldorf",Düsseldorf,Germany,51.2551806,6.8746221,4.3,106.0,5.0,7.0,9.0,18.0,67.0,€€€
Velvet,Cafe,"Stresemannstraße 8, 40210 Düsseldorf",Düsseldorf,Germany,51.2215557,6.7833879,4.4,260.0,16.0,7.0,14.0,52.0,171.0,€€
The Code Agency CAFÉ & BAR,Cafe,"Graf-Adolf-Straße 77, 40210 Düsseldorf",Düsseldorf,Germany,51.2192523,6.7885534,4.9,38.0,0.0,0.0,1.0,1.0,36.0,
Ristorante L'arte in Cucina,Italian restaurant,"Gerricuspl. 6, 40625 Düsseldorf",Düsseldorf,Germany,51.2371531,6.8620354,4.6,245.0,6.0,6.0,11.0,34.0,188.0,€€€
"ROCAILLE - Café, Patisserie, Bistrot & WineBar - Düsseldorf",Restaurant,"Weissenburgstr. 19 Ecke, Ulmenstraße, 40476 Düsseldorf",Düsseldorf,Germany,51.2461067,6.7852272,4.4,458.0,27.0,12.0,30.0,69.0,320.0,€€
Byzantio (Confectionery),Cake shop,"Bismarckstraße 68, 40210 Düsseldorf",Düsseldorf,Germany,51.22174589999999,6.7873787,4.2,1310.0,159.0,42.0,66.0,200.0,843.0,€€
Gut Knittkuhle,Restaurant,"Knittkuhler Str. 20, 40629 Düsseldorf",Düsseldorf,Germany,51.27062979999999,6.86945,4.0,596.0,49.0,42.0,60.0,158.0,287.0,€€
Restaurant Landhaus Mönchenwerth,Restaurant,"Niederlöricker Str. 56, 40667 Meerbusch",Düsseldorf,Germany,51.256331,6.7205144,4.3,218.0,14.0,8.0,19.0,39.0,138.0,€€€
ANGORA Düsseldorf,Doner kebab restaurant,"Heyestraße 133, 40625 Düsseldorf",Düsseldorf,Germany,51.2241064,6.864113799999999,4.6,56.0,4.0,2.0,1.0,0.0,49.0,
Galerie Burghof,Restaurant,"Burgallee 1, 40489 Düsseldorf",Düsseldorf,Germany,51.2988495,6.7320125,4.2,1622.0,60.0,60.0,173.0,523.0,806.0,€€
Hotel Ashley's Garden,Restaurant,"Karl-Kleppe-Straße 20, 40474 Düsseldorf",Düsseldorf,Germany,51.2537017,6.7555605,4.4,222.0,7.0,5.0,24.0,52.0,134.0,
Café Bar Caramél,Cafe,"Bismarckstraße 56, 40210 Düsseldorf",Düsseldorf,Germany,51.222115,6.7864722,4.2,5.0,0.0,0.0,1.0,2.0,2.0,
Sphere Bay Manga Café,Tea house,"Immermannstraße 29, 40210 Düsseldorf",Düsseldorf,Germany,51.223544,6.787673,4.5,865.0,22.0,24.0,58.0,169.0,592.0,€€
Bäckerei St. Anny Food BV,Bakery,"Friedrich-Ebert-Straße 20, 40210 Düsseldorf",Düsseldorf,Germany,51.2222194,6.788447199999999,4.9,10.0,0.0,0.0,0.0,1.0,9.0,
TENTEN COFFEE,Cafe,"Oststraße 57, 40210 Düsseldorf",Düsseldorf,Germany,51.2247881,6.787975299999999,4.4,776.0,19.0,19.0,61.0,198.0,479.0,€€
Gutshof Restaurant,Restaurant,"Düsseldorfer Str. 253, 40822 Mettmann",Düsseldorf,Germany,51.2536487,6.931834299999999,4.4,21.0,1.0,0.0,1.0,6.0,13.0,
Café Cerisier,Cafe,"Immermannstraße 51, 40210 Düsseldorf",Düsseldorf,Germany,51.222355,6.790007,4.3,186.0,16.0,7.0,13.0,28.0,122.0,€€
Hotel Nikko Düsseldorf,Hotel,"Immermannstraße 41, 40210 Düsseldorf",Düsseldorf,Germany,51.223159,6.7884926,4.1,3582.0,204.0,166.0,434.0,1162.0,1616.0,
Rösterei VIER Immermannstraße,Coffee shop,"Immermanstraße 23, 40210 Düsseldorf",Düsseldorf,Germany,51.2238666,6.787102699999999,4.7,132.0,2.0,2.0,5.0,18.0,105.0,€€
Gut Moschenhof,Restaurant,"Am Gartenkamp 20, 40629 Düsseldorf",Düsseldorf,Germany,51.25545839999999,6.8742845,4.3,112.0,7.0,2.0,11.0,28.0,64.0,
Hotel Weidenhof Düsseldorf City Center,Hotel,"Oststraße 87, 40210 Düsseldorf",Düsseldorf,Germany,51.2234573,6.7868366,4.0,283.0,12.0,14.0,51.0,95.0,111.0,
Hotel Kö59 Düsseldorf - Member of Hommage,Hotel,"Königsallee 59, 40215 Düsseldorf",Düsseldorf,Germany,51.2205117,6.7781539,4.6,1661.0,34.0,18.0,81.0,308.0,1220.0,
Falstaff Deutschland GmbH,Publisher,"Carlspl. 18, 40213 Düsseldorf",Düsseldorf,Germany,51.2237695,6.7744518,4.0,2.0,0.0,0.0,1.0,0.0,1.0,
Hotel Land Gut Höhne,Hotel,"Düsseldorfer Str. 253, 40822 Mettmann",Düsseldorf,Germany,51.2533767,6.9320488,4.4,2247.0,81.0,68.0,159.0,526.0,1413.0,
COCO Café,Cafe,"Friedrich-Ebert-Straße 10, 40210 Düsseldorf",Düsseldorf,Germany,51.2224945,6.7876533,4.3,418.0,22.0,14.0,30.0,83.0,269.0,€€
Restaurant Tafelsilber,Restaurant,"Anrather Str. 88, 47918 Tönisvorst",Düsseldorf,Germany,51.29,6.4375,4.8,428.0,2.0,4.0,14.0,56.0,352.0,€€€
SCARPATI,Restaurant,"Scheffelstraße 41, 42327 Wuppertal",Düsseldorf,Germany,51.2388534,7.0849676,4.7,369.0,7.0,6.0,8.0,53.0,295.0,€€€
Okinii,Sushi restaurant,"Rathenaustraße 2, 45127 Essen",Düsseldorf,Germany,51.45412839999999,7.0115354,4.2,1904.0,102.0,101.0,174.0,432.0,1095.0,€€
Cafe Del Sol Gelsenkirchen II / Erle,Restaurant,"Adenauerallee 128, 45891 Gelsenkirchen",Düsseldorf,Germany,51.5515689,7.0777101,4.0,2812.0,222.0,143.0,372.0,812.0,1263.0,€€
Gasthaus Stappen,Restaurant,"Steinhausen 39, 41352 Korschenbroich",Düsseldorf,Germany,51.1659594,6.5334068,4.8,456.0,4.0,5.0,10.0,54.0,383.0,€€
nordmanns. Das Eis.,Ice cream shop,"Immermannstraße 40, 40210 Düsseldorf",Düsseldorf,Germany,51.2231456,6.7897664,4.5,437.0,11.0,7.0,30.0,79.0,310.0,€€
Schwarzes Meer,Doner kebab restaurant,"Schulte-Hinsel-Straße 15, 45277 Essen",Düsseldorf,Germany,51.4292031,7.0756476,4.5,230.0,7.0,3.0,17.0,45.0,158.0,€
Bismarck Grill Pizzeria,Pizza restaurant,"Charlottenstraße 60, 40210 Düsseldorf",Düsseldorf,Germany,51.2213546,6.7876746,4.0,2.0,0.0,0.0,0.0,2.0,0.0,
Restaurant Iva,Croatian restaurant,"Schmiedegasse 44, 50735 Köln",Düsseldorf,Germany,50.979484,6.943681,4.3,329.0,12.0,11.0,30.0,84.0,192.0,€€
Kaizen,Japanese restaurant,"Lindenstraße 67, 50674 Köln",Düsseldorf,Germany,50.93268,6.934400999999999,4.8,750.0,12.0,8.0,21.0,60.0,649.0,€€€
Da Damiano,Italian restaurant,"Marzellenstraße 66, 50668 Köln",Düsseldorf,Germany,50.94428809999999,6.956184899999999,4.4,176.0,12.0,5.0,7.0,26.0,126.0,
Maritim Hotel,Hotel,"Maritim-Platz 1, 40474 Düsseldorf",Düsseldorf,Germany,51.2759175,6.768415,4.5,3301.0,78.0,51.0,202.0,934.0,2036.0,
FUYU台灣美食坊,Restaurant,"Immermannstraße 46, 40210 Düsseldorf",Düsseldorf,Germany,51.222747,6.7905452,4.4,541.0,20.0,12.0,46.0,118.0,345.0,€
Bahadur Bir Ale,Restaurant,"Oststraße 63, 40210 Düsseldorf",Düsseldorf,Germany,51.2243801,6.787598399999999,4.0,2.0,0.0,0.0,1.0,0.0,1.0,
El Greco,Greek restaurant,"Kämpchen 16a, 52538 Selfkant",Düsseldorf,Germany,51.0142332,5.8920102,4.4,438.0,14.0,10.0,37.0,124.0,253.0,€
Relais & Châteaux Hotel Jagdhof Glashütte,Restaurant,"Glashütter Str. 20, 57334 Bad Laasphe",Düsseldorf,Germany,50.920647,8.279833,4.7,486.0,11.0,7.0,19.0,54.0,395.0,
Takumi Ramen japanisches Restaurant,Ramen restaurant,"Hohenstaufenring 58, 50674 Köln",Düsseldorf,Germany,50.9329379,6.9403023,4.6,1956.0,52.0,44.0,98.0,263.0,1499.0,€€
Abang Toto's Malaysian Deli,Restaurant,"Neusser Str. 557, 50737 Köln",Düsseldorf,Germany,50.9802451,6.9480432,4.9,49.0,0.0,0.0,0.0,3.0,46.0,
Spaghetti und Stars,Italian restaurant,"Oberkasseler Str. 65, 40545 Düsseldorf",Düsseldorf,Germany,51.230819,6.75612,4.5,802.0,9.0,8.0,62.0,186.0,537.0,€€€
Lido Hafen,Fine dining restaurant,"Am Handelshafen 15, 40221 Düsseldorf",Düsseldorf,Germany,51.2155754,6.753744299999999,4.5,189.0,4.0,4.0,11.0,48.0,122.0,€€€
hirschchen,German restaurant,"Alt-Pempelfort 2, 40211 Düsseldorf",Düsseldorf,Germany,51.231671,6.787368,4.2,924.0,27.0,28.0,101.0,334.0,434.0,€€
Portofino,Italian restaurant,"Klosterstraße 20, 40211 Düsseldorf",Düsseldorf,Germany,51.2257338,6.7843484,4.1,481.0,27.0,22.0,47.0,152.0,233.0,€€
Der Kroate,Croatian restaurant,"Börnestraße 2A, 40211 Düsseldorf",Düsseldorf,Germany,51.227475,6.792494,4.5,375.0,12.0,11.0,18.0,63.0,271.0,€€
Cantina Milano,Restaurant,"Gerresheimer Str. 19, 40211 Düsseldorf",Düsseldorf,Germany,51.2275441,6.7937178,4.8,40.0,1.0,0.0,0.0,3.0,36.0,
zimmer no.01,Restaurant,"Schirmerstraße 61, 40211 Düsseldorf",Düsseldorf,Germany,51.23062909999999,6.795131,4.0,259.0,20.0,12.0,35.0,74.0,118.0,€€
Schlemmerecke Türkisches Schnellrestaurant,Turkish restaurant,"Am Wehrhahn 20, 40211 Düsseldorf",Düsseldorf,Germany,51.2283516,6.789375799999999,4.3,91.0,6.0,3.0,6.0,18.0,58.0,€
Hakata.de,Japanese restaurant,"Klosterstraße 34, 40211 Düsseldorf",Düsseldorf,Germany,51.2255177,6.785512,4.2,50.0,4.0,3.0,3.0,8.0,32.0,
China Lounge Rote Laterne - Düsseldorf,Chinese restaurant,"Kurfürstenstraße 29, 40211 Düsseldorf",Düsseldorf,Germany,51.22383989999999,6.7927747,4.3,375.0,18.0,12.0,31.0,80.0,234.0,€€
Cafe Weise am Wehrhahn,European restaurant,"Kölner Str. 1-3, 40211 Düsseldorf",Düsseldorf,Germany,51.2282594,6.7916672,4.3,320.0,17.0,6.0,33.0,82.0,182.0,€
Aldo Genovese,Italian restaurant,"Schirmerstraße 17, 40211 Düsseldorf",Düsseldorf,Germany,51.232809,6.791295,4.6,242.0,7.0,3.0,19.0,30.0,183.0,€€
Schillings im Schauspielhaus,Restaurant,"Gustaf Gründgens Platz 1, 40211 Düsseldorf",Düsseldorf,Germany,51.2283729,6.7839107,4.5,93.0,3.0,5.0,6.0,7.0,72.0,
Antichi Sapori,Italian restaurant,"Am Wehrhahn 71, 40211 Düsseldorf",Düsseldorf,Germany,51.228855,6.793735,4.8,107.0,1.0,0.0,2.0,18.0,86.0,
小尾羊 Little Lamb 杜塞尔多夫,Hot pot restaurant,"Kölner Str. 14, 40211 Düsseldorf",Düsseldorf,Germany,51.22783159999999,6.792789399999999,4.2,389.0,34.0,11.0,31.0,92.0,221.0,€€
King Fusion,Fusion restaurant,"Klosterstraße 24, 40211 Düsseldorf",Düsseldorf,Germany,51.225672,6.784799,4.2,686.0,36.0,40.0,58.0,153.0,399.0,€€€
Samui Thai,Thai restaurant,"Kölner Str. 45, 40211 Düsseldorf",Düsseldorf,Germany,51.2257189,6.7941863,4.4,247.0,11.0,6.0,15.0,53.0,162.0,€€
La Taberna Española,Spanish restaurant,"Wielandstraße 37, 40211 Düsseldorf",Düsseldorf,Germany,51.2305647,6.7941973,4.5,168.0,4.0,7.0,7.0,28.0,122.0,
Pizzeria Romantica,Pizza restaurant,"Düsselthaler Str. 48, 40211 Düsseldorf",Düsseldorf,Germany,51.233844,6.792542999999999,4.6,1707.0,63.0,34.0,80.0,225.0,1305.0,€
Linguini Restaurant & Weinbar,Italian restaurant,"Rochusstraße 44/Ecke, Bagelstraße, 40479 Düsseldorf",Düsseldorf,Germany,51.2328467,6.788393,4.4,260.0,10.0,5.0,22.0,56.0,167.0,€€
Yatana,Eritrean restaurant,"Worringer Str. 67, 40211 Düsseldorf",Düsseldorf,Germany,51.22589,6.796069999999999,4.8,700.0,4.0,4.0,10.0,82.0,600.0,
Casita Mexicana Pempelfort,Mexican restaurant,"Beuthstraße 1, 40211 Düsseldorf",Düsseldorf,Germany,51.231167,6.791856,4.5,1454.0,33.0,25.0,89.0,324.0,983.0,€€
L’arcobaleno,Restaurant,"Adlerstraße 79, 40211 Düsseldorf",Düsseldorf,Germany,51.2297504,6.795254099999999,4.5,378.0,14.0,7.0,17.0,60.0,280.0,€
Tak Persisches Restaurant,Persian restaurant,"Kölner Str. 41, 40211 Düsseldorf",Düsseldorf,Germany,51.2263406,6.7936307,4.0,247.0,34.0,6.0,23.0,44.0,140.0,€€
Trattoria Emiliana - Düsseldorf (Pempelfort),Italian restaurant,"Adlerstraße 42, 40211 Düsseldorf",Düsseldorf,Germany,51.2309052,6.792823899999999,4.4,236.0,10.0,3.0,21.0,44.0,158.0,€€
Rochus Schänke,Gastropub,"Rochusstraße 60, 40479 Düsseldorf",Düsseldorf,Germany,51.2320967,6.7895325,4.7,91.0,0.0,0.0,5.0,15.0,71.0,€
Su Nuraghe,Italian restaurant,"Am Wehrhahn 69, 40211 Düsseldorf",Düsseldorf,Germany,51.2288001,6.7936141,4.6,414.0,21.0,6.0,10.0,62.0,315.0,€€
Delhi Height,Indian restaurant,"Wielandstraße 10, 40211 Düsseldorf",Düsseldorf,Germany,51.2290115,6.7924517,4.4,138.0,12.0,4.0,6.0,16.0,100.0,
Pizzeria Bella Mia,Pizza restaurant,"Kölner Str. 43 A, 40211 Düsseldorf",Düsseldorf,Germany,51.2258413,6.7940635,4.4,143.0,11.0,5.0,6.0,18.0,103.0,
Düsseldorfer Privatbrauerei Frankenheim GmbH & Co. KG,Restaurant,"Wielandstraße 12-14, 40211 Düsseldorf",Düsseldorf,Germany,51.2292175,6.792768,4.0,1199.0,76.0,61.0,179.0,354.0,529.0,€€
Takumi 3rd Chicken & Veggie,Ramen restaurant,"Klosterstraße 72, 40211 Düsseldorf",Düsseldorf,Germany,51.2247166,6.7889542,4.7,926.0,16.0,3.0,34.0,130.0,743.0,€€
Asia Point,Restaurant,"Tonhallenstraße 2, 40211 Düsseldorf",Düsseldorf,Germany,51.2268301,6.7876832,4.3,40.0,6.0,1.0,1.0,1.0,31.0,
sumi.,Sushi restaurant,"Schinkelstraße 28, 40211 Düsseldorf",Düsseldorf,Germany,51.2318465,6.7929629,4.5,412.0,8.0,8.0,30.0,89.0,277.0,€€
Osteria Mossimo Milano,Restaurant,"Düsselthaler Str. 22, 40211 Düsseldorf",Düsseldorf,Germany,51.232989,6.79102,4.4,272.0,15.0,5.0,17.0,54.0,181.0,€€
Pizzeria Casanova,Italian restaurant,"Am Wehrhahn 45, 40211 Düsseldorf",Düsseldorf,Germany,51.228472,6.792195,4.4,830.0,28.0,29.0,55.0,173.0,545.0,€
Parlin | Essen und Weinbar,French restaurant,"Altestadt 12, 40213 Düsseldorf",Düsseldorf,Germany,51.2289063,6.772678399999999,4.3,139.0,8.0,8.0,10.0,27.0,86.0,€€€
Mama Cai 何家欢 媽媽菜,Chinese restaurant,"Am Wehrhahn 59, 40211 Düsseldorf",Düsseldorf,Germany,51.2286545,6.7930237,4.3,427.0,26.0,15.0,26.0,85.0,275.0,€€
Chidonkey,Restaurant,"Am Wehrhahn 6, 40211 Düsseldorf",Düsseldorf,Germany,51.22814899999999,6.7882114,4.3,588.0,35.0,17.0,43.0,147.0,346.0,€
Schmalbauch,Restaurant,"Birkenstraße 46, 40233 Düsseldorf",Düsseldorf,Germany,51.2271773,6.8031536,4.5,758.0,15.0,13.0,48.0,164.0,518.0,€€
Zerogradi,Restaurant,"Wielandstraße 54, 40211 Düsseldorf",Düsseldorf,Germany,51.2308561,6.7940495,4.8,50.0,2.0,0.0,1.0,2.0,45.0,
Naniwa sushi & more,Restaurant,"Klosterstraße 68a, 40211 Düsseldorf",Düsseldorf,Germany,51.2248813,6.7885785,4.5,155.0,3.0,1.0,12.0,36.0,103.0,
Baan Prickynoo Thai Restaurant,Thai restaurant,"Am Wehrhahn 85, 40211 Düsseldorf",Düsseldorf,Germany,51.2290893,6.7949188,4.2,181.0,16.0,8.0,12.0,37.0,108.0,€€
La Barca,Pizza restaurant,"Derendorfer Str. 92, 40479 Düsseldorf",Düsseldorf,Germany,51.2335162,6.7902103,4.4,203.0,9.0,7.0,10.0,45.0,132.0,€
Restaurant Pink Pepper,Restaurant,"Königsallee 1A, 40212 Düsseldorf",Düsseldorf,Germany,51.226762,6.7784679,5.0,8.0,0.0,0.0,0.0,0.0,8.0,
Green Light District 红灯区,Restaurant,"Klosterstraße 38, 40211 Düsseldorf",Düsseldorf,Germany,51.2254876,6.7857603,4.5,54.0,3.0,2.0,1.0,5.0,43.0,
The Paris Club,French restaurant,"Louis-Pasteur-Platz 1, 40211 Düsseldorf",Düsseldorf,Germany,51.231058,6.7958637,4.2,498.0,35.0,19.0,47.0,120.0,277.0,
Athos-Grill Düsseldorf,Greek restaurant,"Grafenberger Allee 43, 40237 Düsseldorf",Düsseldorf,Germany,51.22983559999999,6.7987096,4.5,288.0,10.0,10.0,20.0,46.0,202.0,€
Frittenwerk Schadowstraße,Restaurant,"Schadowstraße 86-88, 40212 Düsseldorf",Düsseldorf,Germany,51.2279153,6.7870209,4.3,1513.0,53.0,57.0,143.0,401.0,859.0,€€
TAM TAM Restaurant - Lieferservice,Fusion restaurant,"Ackerstraße 88, 40233 Düsseldorf",Düsseldorf,Germany,51.2277414,6.801412099999999,4.2,410.0,29.0,13.0,40.0,84.0,244.0,€€
Takumi 2nd Tonkotsu,Ramen restaurant,"Oststraße 51, 40211 Düsseldorf",Düsseldorf,Germany,51.2251692,6.7882311,4.6,1857.0,44.0,30.0,96.0,353.0,1334.0,
Le Petit Chef - Düsseldorf,Restaurant,"Steigenberger Parkhotel, Königsallee 1A, 40212 Düsseldorf",Düsseldorf,Germany,51.22664,6.77834,4.7,43.0,1.0,0.0,4.0,3.0,35.0,
Kirti's Dhaba,Restaurant,"Düsselthaler Str. 1 a, 40211 Düsseldorf",Düsseldorf,Germany,51.2321713,6.7900198,4.2,687.0,43.0,27.0,46.0,192.0,379.0,€€
Jimmy's Coffee and more...,Brunch restaurant,"Am Wehrhahn 65, 40211 Düsseldorf",Düsseldorf,Germany,51.2287512,6.793396899999999,4.7,224.0,1.0,4.0,7.0,27.0,185.0,
Beethoven in Flingern,Restaurant,"Ackerstraße 106, 40233 Düsseldorf",Düsseldorf,Germany,51.2289155,6.8034754,4.3,738.0,25.0,17.0,80.0,236.0,380.0,€€
Buster Pasta,Restaurant,"Schadowstraße 86-88, 40212 Düsseldorf",Düsseldorf,Germany,51.2278671,6.787002999999999,4.0,2213.0,206.0,118.0,264.0,597.0,1028.0,€
Himmel & Aehd,Restaurant,"Nordstraße 53, 40477 Düsseldorf",Düsseldorf,Germany,51.2379434,6.7798835,4.2,883.0,51.0,21.0,76.0,255.0,480.0,€€
Restaurant Spoerl Fabrik,Fusion restaurant,"Tußmannstraße 70, 40477 Düsseldorf",Düsseldorf,Germany,51.2410583,6.7921919,4.4,475.0,18.0,12.0,29.0,129.0,287.0,€€
Dodo&Jojo Seoul Deli,Korean restaurant,"Gerresheimer Str. 12, 40211 Düsseldorf",Düsseldorf,Germany,51.228029,6.7930737,4.6,210.0,6.0,2.0,10.0,26.0,166.0,
CRAZY CHURROS,Restaurant,"Am Wehrhahn 45, 40211 Düsseldorf",Düsseldorf,Germany,51.2283876,6.7922033,4.7,185.0,7.0,2.0,3.0,9.0,164.0,
Principale Pizzabar,Pizza takeaway,"Lindenstraße 66, 40233 Düsseldorf",Düsseldorf,Germany,51.22878859999999,6.8017327,4.4,326.0,8.0,16.0,21.0,68.0,213.0,€€
Okra,Ethiopian restaurant,"Ackerstraße 119, 40233 Düsseldorf",Düsseldorf,Germany,51.2287827,6.8044104,4.4,319.0,15.0,6.0,18.0,74.0,206.0,€€
Restaurant Haus am Rhein,Restaurant,"Rotterdamer Str. 40, 40474 Düsseldorf",Düsseldorf,Germany,51.2503669,6.758128699999999,4.5,409.0,12.0,4.0,32.0,93.0,268.0,€€
Uerige,Brewpub,"Berger Str. 1, 40213 Düsseldorf",Düsseldorf,Germany,51.2249992,6.7722509,4.5,10276.0,297.0,173.0,628.0,2545.0,6633.0,€€
Pizzeria Ristorante Matteo,Pizza takeaway,"Hunsrückenstraße 21, 40213 Düsseldorf",Düsseldorf,Germany,51.2265945,6.775366699999999,4.2,765.0,59.0,32.0,55.0,156.0,463.0,€€
Ramen Soul,Ramen restaurant,"Franklinstraße 24, 40479 Düsseldorf",Düsseldorf,Germany,51.235994,6.789632,4.5,717.0,15.0,30.0,47.0,141.0,484.0,€€
Takezo,Ramen restaurant,"Immermannstraße 48, 40210 Düsseldorf",Düsseldorf,Germany,51.2226986,6.7907142,4.4,1459.0,56.0,35.0,93.0,309.0,966.0,€€
Lima's RestoBar,Peruvian restaurant,"Münsterstraße 242, 40470 Düsseldorf",Düsseldorf,Germany,51.2487432,6.7974975,4.7,437.0,5.0,2.0,23.0,51.0,356.0,€€
Schlemmer Ecke Düsseldorf,Kebab shop,"Erkrather Str. 169, 40233 Düsseldorf",Düsseldorf,Germany,51.2204134,6.809558699999999,4.3,1446.0,76.0,44.0,115.0,286.0,925.0,€
Dr. Kosch,Fine dining restaurant,"Roßstraße 39, 40476 Düsseldorf",Düsseldorf,Germany,51.2441347,6.7809993,4.6,122.0,1.0,4.0,8.0,20.0,89.0,
KYTO Coffee Wehrhahn,Cafe,"Am Wehrhahn 42, 40211 Düsseldorf",Düsseldorf,Germany,51.2284494,6.7912231,4.8,385.0,2.0,3.0,14.0,48.0,318.0,€€
Renya,Japanese restaurant,"Collenbachstraße 1, 40476 Düsseldorf",Düsseldorf,Germany,51.2411464,6.7821224,4.4,231.0,9.0,5.0,15.0,53.0,149.0,€€
Restaurant Rodizio Royal,Brazilian restaurant,"Elisabethstraße 82, 40217 Düsseldorf",Düsseldorf,Germany,51.21057279999999,6.7755584,4.1,1237.0,81.0,84.0,132.0,279.0,661.0,€€
Saittavini,Restaurant,"Luegallee 79, 40545 Düsseldorf",Düsseldorf,Germany,51.2312546,6.7516928,4.4,431.0,24.0,7.0,25.0,78.0,297.0,
Spezialitäten Bäckerei und Konditorei Behmer GmbH,Bakery,"BROT-KINO, Am Wehrhahn 21, 40211 Düsseldorf",Düsseldorf,Germany,51.2279487,6.789313399999999,4.0,71.0,7.0,6.0,8.0,12.0,38.0,€€
Tomo Cafè,Cafe,"Klosterstraße 67, 40211 Düsseldorf",Düsseldorf,Germany,51.2241017,6.7912716,4.8,376.0,3.0,6.0,9.0,37.0,321.0,€€
Cafe Weise,Restaurant,"Himmelgeister Str. 117, 40225 Düsseldorf",Düsseldorf,Germany,51.19820989999999,6.782352599999999,4.2,565.0,23.0,21.0,67.0,177.0,277.0,€€
25hours Hotel Das Tour,Restaurant,"Louis-Pasteur-Platz 1, 40211 Düsseldorf",Düsseldorf,Germany,51.2311039,6.7959273,4.5,1546.0,43.0,28.0,90.0,328.0,1057.0,
Ohrensessel Café & Galerie,Art cafe,"Tonhallenstraße 11, 40211 Düsseldorf",Düsseldorf,Germany,51.2268171,6.7881152,5.0,8.0,0.0,0.0,0.0,0.0,8.0,
Café Kasbah,Cafe,"Rheinort 2, 40213 Düsseldorf",Düsseldorf,Germany,51.22498479999999,6.7711837,4.2,941.0,44.0,29.0,98.0,289.0,481.0,€€
Cafe Bar La Paillette,Cafe,"Schirmerstraße 2, 40211 Düsseldorf",Düsseldorf,Germany,51.2336222,6.790664599999999,4.6,82.0,3.0,0.0,4.0,15.0,60.0,
Dä Spiegel,Pub,"Bolkerstraße 22, 40213 Düsseldorf",Düsseldorf,Germany,51.226185,6.773549399999999,4.3,887.0,29.0,25.0,89.0,264.0,480.0,€€
bruno die bulldogge,Cafe,"Jacobistraße 22, 40211 Düsseldorf",Düsseldorf,Germany,51.2282059,6.787513,5.0,58.0,0.0,0.0,1.0,0.0,57.0,
Café Hüftgold,Cafe,"Ackerstraße 113, 40233 Düsseldorf",Düsseldorf,Germany,51.2286364,6.8037087,4.4,1247.0,42.0,31.0,94.0,307.0,773.0,€€
MR.BENS CAFÉ,Cafe,"Schadowstraße 54, 40212 Düsseldorf",Düsseldorf,Germany,51.2270277,6.7840586,4.6,211.0,2.0,8.0,9.0,30.0,162.0,
"Holiday Inn Dusseldorf City Toulouser All., an IHG Hotel",Hotel,"Toulouser Allee 5, 40211 Düsseldorf",Düsseldorf,Germany,51.2324165,6.7963041,4.4,950.0,18.0,15.0,64.0,310.0,543.0,
Two Sisters Café,Cafe,"Kölner Str. 51, 40211 Düsseldorf",Düsseldorf,Germany,51.225175,6.794696,4.8,5.0,0.0,0.0,0.0,1.0,4.0,
Wonder Waffel Düsseldorf,Ice cream shop,"Liesegangstraße 16, 40211 Düsseldorf",Düsseldorf,Germany,51.226085,6.787138499999999,4.1,1583.0,190.0,79.0,133.0,232.0,949.0,€€
Eisdiele TATI,Ice cream shop,"Schirmerstraße 39, 40211 Düsseldorf",Düsseldorf,Germany,51.2314754,6.7929588,4.6,262.0,7.0,6.0,14.0,34.0,201.0,€
Café Waescherei,Cafe,"Derendorfer Str. 91, 40479 Düsseldorf",Düsseldorf,Germany,51.2328826,6.7900227,5.0,7.0,0.0,0.0,0.0,0.0,7.0,
Schote Gourmetrestaurant by Nelson Müller,Fine dining restaurant,"Rüttenscheider Str. 62, 45130 Essen",Düsseldorf,Germany,51.4380776,7.0051901,4.6,261.0,12.0,2.0,14.0,32.0,201.0,€€€€
Rotisserie du Sommelier,French restaurant,"Wegenerstraße 3, 45131 Essen",Düsseldorf,Germany,51.432254,7.003397,4.7,91.0,2.0,0.0,4.0,12.0,73.0,
Haus Stemberg,Fine dining restaurant,"Kuhlendahler Str. 295, 42553 Velbert",Düsseldorf,Germany,51.331354,7.09134,4.8,430.0,4.0,9.0,12.0,31.0,374.0,€€€
Trattoria Pizzeria La Romantica - Andrea Barracco,Italian restaurant,"In den Weiden 1, 41363 Jüchen",Düsseldorf,Germany,51.1011065,6.5069662,4.6,381.0,8.0,6.0,16.0,66.0,285.0,€€
CARLS Restaurant,German restaurant,"Eichendorffstraße 25, 50823 Köln",Düsseldorf,Germany,50.9558764,6.9228011,4.5,220.0,9.0,9.0,10.0,38.0,154.0,€€
mrcoffee,Coffee shop,"Am Wehrhahn 52, 40211 Düsseldorf",Düsseldorf,Germany,51.2287969,6.792078399999999,4.6,39.0,3.0,0.0,1.0,0.0,35.0,
Lippeschlößchen,Restaurant,"Willy-Brandt-Straße 2, 46485 Wesel",Düsseldorf,Germany,51.6432586,6.633654399999999,4.0,352.0,36.0,18.0,35.0,73.0,190.0,€€
Premier Inn Düsseldorf City Ost hotel,Hotel,"Am Wehrhahn 80, 40211 Düsseldorf",Düsseldorf,Germany,51.2295064,6.7948134,4.4,385.0,17.0,6.0,25.0,83.0,254.0,
MERCY coffee company,Cafe,"Birkenstraße 73, 40233 Düsseldorf",Düsseldorf,Germany,51.2267886,6.8045594,4.9,147.0,1.0,1.0,2.0,10.0,133.0,
Restaurant Landhotel Bartmann,Restaurant,"Bracht 3, 48324 Sendenhorst",Düsseldorf,Germany,51.82602,7.824789999999999,4.6,355.0,0.0,4.0,20.0,94.0,237.0,
BABA GREEN - Oriental Soul Food,Middle Eastern restaurant,"Am Wehrhahn 23, 40211 Düsseldorf",Düsseldorf,Germany,51.2279197,6.7894624,4.1,1144.0,72.0,55.0,124.0,282.0,611.0,€€
Homemade We Eat Fine,Cafe,"Klosterstraße 62, 40211 Düsseldorf",Düsseldorf,Germany,51.2251115,6.7874441,4.7,92.0,2.0,0.0,5.0,10.0,75.0,
Living Emilia Düsseldorf,Takeout restaurant,"Königsallee 60 B, 40212 Düsseldorf",Düsseldorf,Germany,51.221578,6.781248799999999,4.6,94.0,2.0,4.0,1.0,11.0,76.0,
Ristorante Maranello,Restaurant,"Berliner Allee 52, 40212 Düsseldorf",Düsseldorf,Germany,51.21905,6.7823395,4.5,94.0,4.0,3.0,4.0,13.0,70.0,
Sansibar by Breuninger Düsseldorf,Restaurant,"Bogen, Königsallee 2/1. OG, 40212 Düsseldorf",Düsseldorf,Germany,51.227318,6.780637899999999,4.1,326.0,12.0,22.0,44.0,76.0,172.0,€€€
Habob,Restaurant,"Königsallee 56, 40212 Düsseldorf",Düsseldorf,Germany,51.2225848,6.7803377,4.8,41.0,2.0,0.0,1.0,0.0,38.0,
Wilma Wunder Düsseldorf,German restaurant,"Martin-Luther-Platz 27, 40212 Düsseldorf",Düsseldorf,Germany,51.2251482,6.7829238,4.1,1700.0,115.0,87.0,154.0,443.0,901.0,€€
Manju,Fast food restaurant,"Königsallee 56, 40212 Düsseldorf",Düsseldorf,Germany,51.222539,6.7796787,4.1,208.0,11.0,11.0,30.0,54.0,102.0,
Curry,Hamburger restaurant,"Königsallee 56, 40212 Düsseldorf",Düsseldorf,Germany,51.2225848,6.780337599999999,4.1,15.0,2.0,0.0,0.0,5.0,8.0,
Tino's Bar,Restaurant,"Königsallee 59, 40215 Düsseldorf",Düsseldorf,Germany,51.220619,6.7781743,4.1,471.0,49.0,19.0,45.0,86.0,272.0,€€€
Papi Poké,Restaurant,"Königsallee 56, 40212 Düsseldorf",Düsseldorf,Germany,51.2225848,6.7803377,4.1,36.0,6.0,1.0,1.0,4.0,24.0,
Altstadt Restaurant,Restaurant,"Berger Str. 17, 40213 Düsseldorf",Düsseldorf,Germany,51.2244509,6.7723261,4.1,700.0,35.0,36.0,89.0,210.0,330.0,€€
Meat Atelier,Restaurant,"Berliner Allee 52, 40212 Düsseldorf",Düsseldorf,Germany,51.2190086,6.7825633,4.3,45.0,4.0,3.0,2.0,2.0,34.0,
Restaurant Graf Düsseldorf,Restaurant,"Graf-Adolf-Straße 22, 40212 Düsseldorf",Düsseldorf,Germany,51.2190916,6.7811381,4.3,6.0,0.0,1.0,0.0,1.0,4.0,
Sushi Point,Conveyor belt sushi restaurant,"Königsallee 56, 40212 Düsseldorf",Düsseldorf,Germany,51.2226645,6.779967399999999,4.4,118.0,3.0,2.0,11.0,32.0,70.0,
L'Osteria Düsseldorf Jahnstraße,Italian restaurant,"Jahnstraße 1, 40215 Düsseldorf",Düsseldorf,Germany,51.2182201,6.7806804,4.1,1008.0,91.0,39.0,83.0,212.0,583.0,€€
ALEX Düsseldorf,Restaurant,"Kasernenstraße 48, Graf-Adolf-Platz 15, 40213 Düsseldorf",Düsseldorf,Germany,51.2195531,6.7764685,4.3,1990.0,75.0,44.0,150.0,596.0,1125.0,€€
LAKI'S,Fusion restaurant,"Breite Str. 28, 40213 Düsseldorf",Düsseldorf,Germany,51.2220203,6.7771767,4.0,254.0,40.0,9.0,25.0,29.0,151.0,
Mayur Düsseldorf,Indian restaurant,"Hohe Str. 2, 40213 Düsseldorf",Düsseldorf,Germany,51.2228174,6.774297799999999,4.7,1064.0,5.0,7.0,15.0,235.0,802.0,€€
be-lucca Restaurant,Italian restaurant,"Hohe Str. 49, 40213 Düsseldorf",Düsseldorf,Germany,51.2203363,6.773953199999999,4.5,544.0,20.0,5.0,30.0,128.0,361.0,€€
Natcha - Modern Thai Food,Thai restaurant,"Eingang: Kasernenstrasse (18, Benrather Str. 18-20, 40213 Düsseldorf",Düsseldorf,Germany,51.2233641,6.7759142,4.5,386.0,7.0,8.0,30.0,96.0,245.0,
MARUYASU,Sushi restaurant,"Schadowstraße, 40212 Düsseldorf",Düsseldorf,Germany,51.225134,6.780908999999999,4.5,620.0,22.0,15.0,31.0,100.0,452.0,€€
Casa Luigi,Italian restaurant,"Hohe Str. 33, 40213 Düsseldorf",Düsseldorf,Germany,51.221117,6.774061,4.5,493.0,12.0,4.0,32.0,106.0,339.0,€€
bona'me Düsseldorf,Middle Eastern restaurant,"Kasernenstraße 39-49, 40213 Düsseldorf",Düsseldorf,Germany,51.2223735,6.7751839,4.1,717.0,74.0,40.0,51.0,129.0,423.0,€€
Baan Thai Restaurant,Asian restaurant,"Berger Straße 28 Am Carlsplatz), Altstadt, 40213 Düsseldorf",Düsseldorf,Germany,51.2239707,6.7728806,4.1,499.0,39.0,26.0,54.0,127.0,253.0,€€
Restaurant Vossen Düsseldorf,Restaurant,"Helmholtzstraße 34, 40215 Düsseldorf",Düsseldorf,Germany,51.21435,6.787075,4.7,987.0,0.0,0.0,50.0,216.0,721.0,€€
Isabella Glutenfreie Pâtisserie,Patisserie,"Galerie, Königsallee 60, 40212 Düsseldorf",Düsseldorf,Germany,51.2219762,6.780773099999999,4.5,142.0,1.0,8.0,10.0,30.0,93.0,
A Tavola,Italian restaurant,"Wallstraße 11, 40213 Düsseldorf",Düsseldorf,Germany,51.2242431,6.7731834,4.2,640.0,40.0,25.0,51.0,165.0,359.0,€€
Bullhut BBQ,Barbecue restaurant,"Schadowstraße 11, 40212 Düsseldorf",Düsseldorf,Germany,51.2251127,6.7814142,4.0,89.0,12.0,3.0,9.0,15.0,50.0,€€
Schweine Janes Altstadt,Restaurant,"Bolkerstraße 13, 40213 Düsseldorf",Düsseldorf,Germany,51.2260265,6.772928899999999,4.3,2126.0,122.0,75.0,147.0,460.0,1322.0,€
Tabouleh,Lebanese restaurant,"Schadowstraße 11, 40212 Düsseldorf",Düsseldorf,Germany,51.2250726,6.7820505,4.0,98.0,14.0,2.0,5.0,23.0,54.0,
Koreanisches Restaurant Gusan,Korean restaurant,"Stresemannstraße 31, 40210 Düsseldorf",Düsseldorf,Germany,51.2201409,6.785504299999999,4.6,608.0,12.0,14.0,28.0,79.0,475.0,€€
Massi Bar & Restaurant - Düsseldorf,Restaurant,"Moltkestraße 110, 40479 Düsseldorf",Düsseldorf,Germany,51.2370058,6.7923382,4.8,422.0,0.0,3.0,13.0,51.0,355.0,€€
Fritten Piet,Fast food restaurant,"Schadowstraße 64, 40212 Düsseldorf",Düsseldorf,Germany,51.2272993,6.7852595,4.0,24.0,3.0,1.0,2.0,4.0,14.0,
Cafe Graf,Coffee shop,"Graf-Adolf-Straße 22, 40212 Düsseldorf",Düsseldorf,Germany,51.2190916,6.7811381,4.6,99.0,2.0,4.0,5.0,13.0,75.0,
Gaststätte Zum Franz,Restaurant,"Berger Str. 33, 40213 Düsseldorf",Düsseldorf,Germany,51.2238979,6.7726603,4.4,264.0,8.0,7.0,25.0,68.0,156.0,€
Casita Mexicana,Mexican restaurant,"Hunsrückenstraße 15, 40213 Düsseldorf",Düsseldorf,Germany,51.226609,6.775297999999999,4.4,1601.0,36.0,43.0,107.0,444.0,971.0,€€
Rosalie's Deli I Café,Restaurant,"Königsallee 1-9, 40212 Düsseldorf",Düsseldorf,Germany,51.2261985,6.7782059,4.2,16.0,3.0,0.0,0.0,1.0,12.0,
Las Tapas,Tapas restaurant,"Schneider-Wibbel-Gasse 2-4, 40213 Düsseldorf",Düsseldorf,Germany,51.2258595,6.773240899999999,4.3,857.0,33.0,9.0,90.0,241.0,484.0,€€
Mongo's Restaurant Düsseldorf,Asian restaurant,"Zollhof 10, 40221 Düsseldorf",Düsseldorf,Germany,51.2144071,6.7545359,4.2,1896.0,74.0,72.0,191.0,560.0,999.0,€€
Pizzeria Lupo,Pizza restaurant,"Bolkerstraße 52, 40213 Düsseldorf",Düsseldorf,Germany,51.2265123,6.7755746,4.4,2382.0,107.0,65.0,184.0,498.0,1528.0,€
Le Bouchon,French restaurant,"Blücherstraße 70, 40477 Düsseldorf",Düsseldorf,Germany,51.23725839999999,6.7846338,4.5,126.0,6.0,0.0,6.0,24.0,90.0,
GRANDE ÉTOILE I Carlstadt,Restaurant,"Bastionstraße 16, 40213 Düsseldorf",Düsseldorf,Germany,51.2216113,6.7749979,4.5,113.0,6.0,3.0,5.0,15.0,84.0,
Manhattan | Restaurant & Bar,New American restaurant,"Bolkerstraße 10, 40213 Düsseldorf",Düsseldorf,Germany,51.2261283,6.772708499999999,4.0,622.0,69.0,40.0,56.0,123.0,334.0,
Manufactum Brot & Butter,Cafe,"Steinstraße 4, 40212 Düsseldorf",Düsseldorf,Germany,51.2231744,6.78043,4.4,294.0,10.0,11.0,14.0,82.0,177.0,€€€
Breidenbacher Hof Düsseldorf,Restaurant,"Königsallee 11, 40212 Düsseldorf",Düsseldorf,Germany,51.2254421,6.7778161,4.7,1081.0,25.0,5.0,38.0,108.0,905.0,
Benkay Teppanyaki,Authentic Japanese restaurant,"Immermannstraße 41, 40210 Düsseldorf",Düsseldorf,Germany,51.22276,6.78909,4.0,103.0,12.0,7.0,7.0,20.0,57.0,
"Brewery Zum Schlüssel“, Düsseldorf",Brewery,"Bolkerstraße 41-47, 40213 Düsseldorf",Düsseldorf,Germany,51.226086,6.774435,4.2,1491.0,134.0,47.0,80.0,341.0,889.0,€
Curry,Restaurant,"Hammer Str. 2, 40219 Düsseldorf",Düsseldorf,Germany,51.2157,6.75841,4.4,1085.0,31.0,25.0,75.0,262.0,692.0,€€
WOYTON am Schadowplatz,Cafe,"Schadowplatz 16, 40212 Düsseldorf",Düsseldorf,Germany,51.2262318,6.7809613,4.1,483.0,32.0,23.0,54.0,139.0,235.0,€€
Brewery im Füchschen,Brewery,"Ratinger Str. 28, 40213 Düsseldorf",Düsseldorf,Germany,51.2295321,6.775249899999999,4.3,1670.0,116.0,51.0,73.0,336.0,1094.0,
Ristorante Perla Porto,Italian restaurant,"Speditionstraße 15, 40221 Düsseldorf",Düsseldorf,Germany,51.2157047,6.7511188,4.3,469.0,20.0,4.0,64.0,126.0,255.0,€€
Restaurant Amici,Restaurant,"Fleher Str. 220, 40223 Düsseldorf",Düsseldorf,Germany,51.1938529,6.7710408,4.3,28.0,3.0,1.0,1.0,4.0,19.0,
Konditorei Heinemann,Restaurant,"Martin-Luther-Platz 32, 40212 Düsseldorf",Düsseldorf,Germany,51.22469299999999,6.781031,4.5,1731.0,53.0,35.0,100.0,398.0,1145.0,€€
Henri's Café,Cafe,"Heinrich-Heine-Allee 37, 40213 Düsseldorf",Düsseldorf,Germany,51.225942,6.776548999999999,4.1,641.0,42.0,41.0,72.0,145.0,341.0,€€
Bazzar Caffè,Coffee shop,"Heinrich-Heine-Allee 53, 40213 Düsseldorf",Düsseldorf,Germany,51.2246818,6.7768064,4.1,799.0,52.0,29.0,73.0,242.0,403.0,€€
Byblos Restaurant,Lebanese restaurant,"Markenstraße 9, 40227 Düsseldorf",Düsseldorf,Germany,51.2112805,6.809132699999999,4.3,1179.0,86.0,34.0,76.0,239.0,744.0,€
Copenhagen Coffee Lab,Coffee shop,"Berliner Allee 29, 40212 Düsseldorf",Düsseldorf,Germany,51.2232363,6.782303499999999,4.2,484.0,26.0,19.0,46.0,121.0,272.0,€€
Chidonkey,Fast food restaurant,"Hammer Str. 4, 40219 Düsseldorf",Düsseldorf,Germany,51.2156292,6.758335,4.2,917.0,43.0,35.0,75.0,264.0,500.0,€€
dean&david Dusseldorf,Salad shop,"Hunsrückenstraße 44, 40213 Düsseldorf",Düsseldorf,Germany,51.2260238,6.7758107,4.0,418.0,49.0,21.0,38.0,100.0,210.0,€€
Trattoria Zucchero,Italian restaurant,"Heinrichstraße 155, 40239 Düsseldorf",Düsseldorf,Germany,51.2502188,6.8031747,4.3,520.0,20.0,22.0,46.0,133.0,299.0,€€
Brasserie Hülsmann,Restaurant,"Belsenpl. 1, 40545 Düsseldorf",Düsseldorf,Germany,51.2312792,6.7479827,4.6,511.0,17.0,6.0,22.0,97.0,369.0,€€€
Restaurant Flurklinik,Restaurant,"Flurstraße 14, 40235 Düsseldorf",Düsseldorf,Germany,51.2281712,6.8128619,4.2,597.0,27.0,20.0,65.0,191.0,294.0,€€
GRANDE ÉTOILE I Derendorf,Restaurant,"Derendorfer Allee 26, 40476 Düsseldorf",Düsseldorf,Germany,51.253555,6.785310099999999,4.5,258.0,8.0,7.0,14.0,58.0,171.0,€€
Hotel Favor,Restaurant,"Schadowplatz 7, 40212 Düsseldorf",Düsseldorf,Germany,51.2262646,6.7801956,4.5,160.0,5.0,1.0,9.0,43.0,102.0,
People's Place,Cafe,"Blumenstraße 2-4, 40212 Düsseldorf",Düsseldorf,Germany,51.2257804,6.780127999999999,4.5,72.0,2.0,2.0,4.0,11.0,53.0,
La Luce Due,Italian restaurant,"Dorotheenstraße 20, 40235 Düsseldorf",Düsseldorf,Germany,51.2306255,6.8097835,4.5,1228.0,37.0,30.0,72.0,231.0,858.0,€€
Battalice X Köffee,Cafe,"Königsallee 60, 40212 Düsseldorf",Düsseldorf,Germany,51.2221409,6.7795502,5.0,1.0,0.0,0.0,0.0,0.0,1.0,
Restaurant Poseidon,Greek restaurant,"Kölner Landstraße 239, 40591 Düsseldorf",Düsseldorf,Germany,51.1851934,6.820021499999999,4.2,433.0,27.0,25.0,27.0,100.0,254.0,€€
Ristorante Amici,Restaurant,"Löricker Str. 1, 40547 Düsseldorf",Düsseldorf,Germany,51.24250199999999,6.7220458,4.5,429.0,18.0,8.0,18.0,88.0,297.0,
Pure Note - Unverpackt Einkaufen,Restaurant,"Brunnenstraße 30, 40223 Düsseldorf",Düsseldorf,Germany,51.206607,6.778693,4.8,199.0,1.0,1.0,5.0,26.0,166.0,
KÖ Shopping Mall,Shopping mall,"Königsallee 60, 40212 Düsseldorf",Düsseldorf,Germany,51.2221409,6.7795502,4.3,11911.0,244.0,292.0,1524.0,3697.0,6154.0,
L'Osteria Düsseldorf Theodorstraße,Italian restaurant,"Theodorstraße 194, 40472 Düsseldorf",Düsseldorf,Germany,51.2724681,6.815420599999999,4.1,2214.0,187.0,101.0,178.0,491.0,1257.0,€€
Prince Coffee House GmbH,Coffee shop,"Königsallee 60 D, 40212 Düsseldorf",Düsseldorf,Germany,51.2218624,6.7809671,4.6,37.0,3.0,0.0,0.0,1.0,33.0,
Palmenhaus - Antonia Hristou,Restaurant,"Hauptstraße 13, 40597 Düsseldorf",Düsseldorf,Germany,51.1630401,6.8733444,4.3,849.0,40.0,30.0,70.0,226.0,483.0,€€
KAFFEE KÖNIGSALLEE by Fabio | Italian Cafe - Coffee to go,Cafe,"Königsallee 22, 40212 Düsseldorf",Düsseldorf,Germany,51.2250539,6.7797037,5.0,9.0,0.0,0.0,0.0,0.0,9.0,
Steigenberger Parkhotel,Hotel,"Königsallee 1A, 40212 Düsseldorf",Düsseldorf,Germany,51.2267563,6.7784169,4.4,1071.0,47.0,33.0,60.0,208.0,723.0,
Restaurant da noi Cucina Italiana,Italian restaurant,"Urdenbacher Dorfstraße 2, 40593 Düsseldorf",Düsseldorf,Germany,51.1493726,6.8672989,4.4,176.0,16.0,5.0,3.0,29.0,123.0,€€
"TEEKONTOR, Düsseldorf",Tea house,"Königsallee, Grünstraße 4,, 40212 Düsseldorf",Düsseldorf,Germany,51.221754,6.7812383,4.0,32.0,3.0,2.0,4.0,5.0,18.0,
RAO Restaurant,Restaurant,"Carrer de les Sitges, 3, 08001 Barcelona",Barcelona,Spain,41.38429,2.1695717,4.7,1022.0,22.0,19.0,39.0,113.0,829.0,€€
Asian Restaurant,Asian restaurant,"Carrer de l'Arc de Sant Agustí, 5, 08001 Barcelona",Barcelona,Spain,41.3804112,2.1724567,4.4,338.0,12.0,10.0,26.0,88.0,202.0,€
Pelai,Mediterranean restaurant,"Carrer dels Tallers, 62, 08001 Barcelona",Barcelona,Spain,41.3850522,2.1670298,4.3,267.0,10.0,10.0,18.0,72.0,157.0,€€
Na Mindona,Majorcan restaurant,"Carrer de la Riereta, 8, 08001 Barcelona",Barcelona,Spain,41.3786026,2.167633,4.7,421.0,5.0,1.0,16.0,60.0,339.0,
Tandoori Nights - Indian Restaurant,Indian restaurant,"Carrer de les Carretes, 44, 08001 Barcelona",Barcelona,Spain,41.3775,2.1672222,4.5,1492.0,53.0,31.0,81.0,241.0,1086.0,€
L'Havana cuina catalana i mercat des de 1945,Catalonian restaurant,"Carrer del Lleó, 1, 08001 Barcelona",Barcelona,Spain,41.381972,2.165035,4.3,355.0,9.0,6.0,44.0,106.0,190.0,€€
Samosa Indian Restaurant,Indian restaurant,"Carrer de l'Hospital, 93, 08001 Barcelona",Barcelona,Spain,41.3801459,2.1696032,4.6,93.0,4.0,0.0,3.0,12.0,74.0,
Ca l'Isidre,Catalonian restaurant,"De, Carrer de les Flors, 12, 08001 Barcelona",Barcelona,Spain,41.3759559,2.1679378,4.4,315.0,10.0,10.0,25.0,73.0,197.0,€€€
Snack Nador,Halal restaurant,"Rambla del Raval, 51, 08001 Barcelona",Barcelona,Spain,41.3780876,2.1705731,4.3,408.0,29.0,19.0,27.0,55.0,278.0,€
Narin,Middle Eastern restaurant,"Carrer dels Tallers, 80, 08001 Barcelona",Barcelona,Spain,41.3852421,2.1647261,4.0,150.0,13.0,3.0,22.0,44.0,68.0,€
Suculent,Restaurant,"Rambla del Raval, 45, 08001 Barcelona",Barcelona,Spain,41.3782328,2.1704737,4.5,990.0,36.0,25.0,61.0,201.0,667.0,€€€
Bismillah Kebabish,Kebab shop,"Carrer de Joaquín Costa, 22, 08001 Barcelona",Barcelona,Spain,41.38198,2.1665184,4.4,3671.0,163.0,98.0,238.0,748.0,2424.0,€
Komo en Kasa,Sandwich shop,"Carrer de Joaquín Costa, 3, 08001 Barcelona",Barcelona,Spain,41.381224,2.1671421,4.4,212.0,12.0,9.0,14.0,34.0,143.0,€
Bombay Spicy,Indian restaurant,"Carrer de Sant Pau, 16, 18, 08001 Barcelona",Barcelona,Spain,41.380367,2.172913,4.4,1794.0,103.0,58.0,124.0,300.0,1209.0,€€
Casa Bangla,Indian restaurant,"Carrer d'En Sant Climent, 8, 08001 Barcelona",Barcelona,Spain,41.3788036,2.1652682,4.8,111.0,3.0,1.0,0.0,8.0,99.0,
A Tu Bola,Fast food restaurant,"Carrer de l'Hospital, 78, 08001 Barcelona",Barcelona,Spain,41.380122,2.168958,4.6,1314.0,25.0,19.0,50.0,231.0,989.0,€
Elisabets Restaurant,Restaurant,"Carrer de les Ramelleres, 3, 08001 Barcelona",Barcelona,Spain,41.3838209,2.169175,4.3,1843.0,64.0,42.0,163.0,580.0,994.0,€
DISTRITO V,Restaurant,"Rambla del Raval, 15, 08001 Barcelona",Barcelona,Spain,41.3792496,2.1691777,4.3,332.0,22.0,9.0,26.0,68.0,207.0,€€
Maharaja,Indian Muslim restaurant,"Rambla del Raval, 14, 08001 Barcelona",Barcelona,Spain,41.3783446,2.1692966,4.2,785.0,45.0,39.0,93.0,181.0,427.0,€€
Patatas de Sultan,Restaurant,"Carrer de Joaquín Costa, 56, 08001 Barcelona",Barcelona,Spain,41.3831706,2.1652963,4.7,232.0,4.0,3.0,10.0,33.0,182.0,
Norai Raval · Maritim Museum Restaurant,Restaurant,"Av. de les Drassanes, 1, 08001 Barcelona",Barcelona,Spain,41.3757723,2.1761302,4.2,764.0,30.0,24.0,96.0,255.0,359.0,€€
Teresa Carles,Vegetarian restaurant,"C/ de Jovellanos, 2, 08001 Barcelona",Barcelona,Spain,41.3851402,2.1680273,4.4,5476.0,179.0,156.0,428.0,1414.0,3299.0,€€
Divan Turkish Restaurant,Turkish restaurant,"Carrer del Bonsuccés, 8, 08001 Barcelona",Barcelona,Spain,41.3843476,2.1701418,4.1,960.0,84.0,40.0,91.0,204.0,541.0,€
Blat Net,Pizza restaurant,"Carrer de les Sitges, 6, 08001 Barcelona",Barcelona,Spain,41.38422,2.1696656,4.5,163.0,3.0,1.0,11.0,44.0,104.0,€
Restaurant Magrebí Hallal,Moroccan restaurant,"Carrer de l'Hospital, 82, 08001 Barcelona",Barcelona,Spain,41.3800636,2.1688983,4.3,141.0,11.0,5.0,6.0,32.0,87.0,€
Usmania Grill Restaurant,Indian restaurant,"Carrer del Príncep de Viana, 1, 08001 Barcelona",Barcelona,Spain,41.379085,2.1637893,4.7,89.0,3.0,2.0,1.0,7.0,76.0,
Tosca del Carme,Tapas restaurant,"Carrer del Carme, 40, 08001 Barcelona",Barcelona,Spain,41.3820018,2.1696242,4.5,1407.0,39.0,36.0,84.0,284.0,964.0,€€
Bar Muy Buenas,Catalonian restaurant,"Carrer del Carme, 63, 08001 Barcelona",Barcelona,Spain,41.3809017,2.1681069,4.4,1146.0,38.0,26.0,97.0,308.0,677.0,€€
AL ANDALUS,Restaurant,"Rambla del Raval, 36, 08001 Barcelona",Barcelona,Spain,41.3776096,2.170169,4.3,202.0,21.0,0.0,15.0,27.0,139.0,€
Güell Tapas Restaurant,Mediterranean restaurant,"Carrer Nou de la Rambla, 20, 08001 Barcelona",Barcelona,Spain,41.3786784,2.173736,4.5,4163.0,101.0,79.0,228.0,788.0,2967.0,€€
Mirch,Restaurant,"Carrer dels Àngels, 12, 08001 Barcelona",Barcelona,Spain,41.3823607,2.168303,4.7,294.0,6.0,1.0,9.0,49.0,229.0,€
Cafè Silenus,Mediterranean restaurant,"Carrer dels Àngels, 8, 08001 Barcelona",Barcelona,Spain,41.3819431,2.1687344,4.3,348.0,2.0,9.0,36.0,123.0,178.0,€€
The Atlas,Fast food restaurant,"Rambla del Raval, 30, 08001 Barcelona",Barcelona,Spain,41.3777547,2.1699743,4.4,665.0,32.0,21.0,48.0,103.0,461.0,€
Adil Tandoori,Pakistani restaurant,"Carrer de l'Est, 9, 08001 Barcelona",Barcelona,Spain,41.3774623,2.1734369,4.3,461.0,34.0,16.0,36.0,66.0,309.0,€
Arume Restaurant,Restaurant,"Carrer d'En Botella, 11, 13, 08001 Barcelona",Barcelona,Spain,41.3789273,2.1659228,4.6,3301.0,73.0,62.0,170.0,614.0,2382.0,€€
Chaka Khan - Gastro Bar Exotique,Gastropub,"Carrer de l'Hospital, 104, 08001 Barcelona",Barcelona,Spain,41.3797561,2.1677899,4.3,961.0,46.0,31.0,84.0,237.0,563.0,€€
Doña Rosa - Cocina Urbana,Mediterranean restaurant,"Carrer de Ferlandina, 27, 08001 Barcelona",Barcelona,Spain,41.3825369,2.1664723,4.6,1419.0,67.0,23.0,64.0,161.0,1104.0,€€
Haldi Indian Restaurant,Vegetarian restaurant,"Carrer del Carme, 71, 08001 Barcelona",Barcelona,Spain,41.3806036,2.167705,4.9,642.0,3.0,1.0,4.0,22.0,612.0,€
La Familia del Raval,Filipino restaurant,"Carrer de la Riereta, 26, 08001 Barcelona",Barcelona,Spain,41.3776181,2.169034,4.4,94.0,2.0,5.0,7.0,18.0,62.0,€
La Joia del Nord,Moroccan restaurant,"Rambla del Raval, 9, 08001 Barcelona",Barcelona,Spain,41.3794566,2.1689853,4.1,170.0,17.0,4.0,21.0,24.0,104.0,
Julivert Meu,Catalonian restaurant,"Carrer del Bonsuccés, 7, 08001 Barcelona",Barcelona,Spain,41.3842852,2.170238,4.1,1062.0,49.0,47.0,132.0,302.0,532.0,€€
Alegoría Restaurante Barcelona,Restaurant,"Carrer d'en Xuclà, 3, 08001 Barcelona",Barcelona,Spain,41.3829259,2.1709864,4.8,334.0,10.0,4.0,5.0,21.0,294.0,
Ca l'Estevet,Catalonian restaurant,"Carrer de Valldonzella, 46, 08001 Barcelona",Barcelona,Spain,41.383282,2.164792,4.6,1099.0,18.0,13.0,55.0,266.0,747.0,€€
Makan Makan,Southeast Asian restaurant,"Carrer de la Lluna, 4, 08001 Barcelona",Barcelona,Spain,41.3807061,2.1665683,4.8,301.0,1.0,6.0,6.0,34.0,254.0,€€
Pollastre A La Brasa,Halal restaurant,"C. de la Cera, 39, 08001 Barcelona",Barcelona,Spain,41.3783777,2.165586,4.2,55.0,2.0,4.0,7.0,10.0,32.0,
Restaurant El Nou Cafeti,Restaurant,"Carrer de Sant Rafael, 18, 08001 Barcelona",Barcelona,Spain,41.3794826,2.1697583,4.6,356.0,11.0,10.0,12.0,59.0,264.0,€
SESAMO,Vegetarian restaurant,"Carrer de Sant Antoni Abat, 52, 08001 Barcelona",Barcelona,Spain,41.3789873,2.1637982,4.4,716.0,31.0,28.0,57.0,142.0,458.0,€€
Madame,Asian restaurant,"Carrer d'En Robador, 22, Bajo A, 08001 Barcelona",Barcelona,Spain,41.3794899,2.1706963,4.4,975.0,22.0,36.0,75.0,280.0,562.0,€€
B Lounge,Restaurant,"Rambla del Raval, 17, 21, 08001 Barcelona",Barcelona,Spain,41.3790161,2.1695899,4.2,71.0,4.0,4.0,6.0,20.0,37.0,
Man o salwa,Halal restaurant,"Carrer del Carme, 95, 08001 Barcelona",Barcelona,Spain,41.3801045,2.1669361,4.4,59.0,3.0,0.0,9.0,6.0,41.0,
Cera 23,Spanish restaurant,"C. de la Cera, 23, 08001 Barcelona",Barcelona,Spain,41.3788811,2.1663227,4.6,1905.0,28.0,30.0,76.0,347.0,1424.0,€€
Flax&Kale,Health food restaurant,"Carrer dels Tallers, 74b, 08001 Barcelona",Barcelona,Spain,41.3851935,2.1655342,4.3,8897.0,397.0,368.0,787.0,2257.0,5088.0,€€
En Ville,Gluten-free restaurant,"Carrer del Dr. Dou, 14, 08001 Barcelona",Barcelona,Spain,41.3829439,2.1686034,4.4,1399.0,32.0,31.0,104.0,375.0,857.0,€€
Cañete,Restaurant,"Carrer de la Unió, 17, 08001 Barcelona",Barcelona,Spain,41.3791528,2.173125,4.6,4070.0,120.0,70.0,186.0,653.0,3041.0,€€€
RESTAURANT ISTANBUL,Restaurant,"Carrer Nou de la Rambla, 1, 08001 Barcelona",Barcelona,Spain,41.3793108,2.1745829,4.5,44.0,4.0,1.0,1.0,0.0,38.0,
L'Antic Forn,Mediterranean restaurant,"Carrer del Pintor Fortuny, 28, 08001 Barcelona",Barcelona,Spain,41.3826032,2.1689659,4.3,812.0,24.0,12.0,72.0,273.0,431.0,€€
Restaurant Eucaliptus,Restaurant,"Carrer del Bonsuccés, 4, 08001 Barcelona",Barcelona,Spain,41.384491,2.1702883,4.3,258.0,11.0,5.0,17.0,86.0,139.0,€
Kabul Rastorant,Restaurant,"Carrer de les, Carrer de les Carretes, 18, 08001 Barcelona",Barcelona,Spain,41.3781206,2.1661883,4.7,75.0,1.0,2.0,5.0,5.0,62.0,
Tròpic,Brunch restaurant,"Carrer del Marquès de Barberà, 24, 08001 Barcelona",Barcelona,Spain,41.3776588,2.1714264,4.3,1951.0,81.0,61.0,151.0,474.0,1184.0,
Restaurant CentOnze,Mediterranean restaurant,"La Rambla, 111, 08002 Barcelona",Barcelona,Spain,41.3838131,2.1708935,4.2,641.0,33.0,34.0,52.0,190.0,332.0,€€
Honest Greens Rambla Catalunya,Health food restaurant,"Rambla de Catalunya, 3, 08007 Barcelona",Barcelona,Spain,41.3875731,2.1679538,4.5,5190.0,234.0,136.0,263.0,932.0,3625.0,€€
Mucci’s,Pizza restaurant,"Carrer del Bonsuccés, 10, 08001 Barcelona",Barcelona,Spain,41.384326,2.170102,4.3,648.0,21.0,21.0,73.0,186.0,347.0,€
Gringa,American restaurant,"Carrer de la Lleialtat, 16, 08001 Barcelona",Barcelona,Spain,41.3767823,2.1664532,4.7,864.0,13.0,12.0,36.0,133.0,670.0,
Rosa Negra,Mexican restaurant,"Carrer dels Àngels, 6, 08001 Barcelona",Barcelona,Spain,41.38198879999999,2.1688525,4.3,4215.0,111.0,114.0,398.0,1255.0,2337.0,€€
La Prudencia del Raval,Restaurant,"Carrer de l'Abat Safont, 11, 08001 Barcelona",Barcelona,Spain,41.3758113,2.168827,4.4,322.0,16.0,6.0,20.0,58.0,222.0,€€
Radici,Italian restaurant,"Rambla del Raval, 3, 08001 Barcelona",Barcelona,Spain,41.37971719999999,2.1686834,4.6,401.0,22.0,5.0,14.0,39.0,321.0,
KINO,Restaurant,"Carrer de Ferlandina, 23, 08001 Barcelona",Barcelona,Spain,41.3826007,2.1665946,4.4,882.0,37.0,23.0,67.0,202.0,553.0,€€
Caravelle,Restaurant,"Carrer del Pintor Fortuny, 31, 08001 Barcelona",Barcelona,Spain,41.3822758,2.1688169,4.6,2130.0,48.0,36.0,104.0,353.0,1589.0,€€
CactusCat Bar,Vegan restaurant,"Carrer de Valldonzella, 52, 08001 Barcelona",Barcelona,Spain,41.38311119999999,2.1646025,4.9,687.0,0.0,4.0,9.0,48.0,626.0,
Electropikal Club & Restaurant,Restaurant,"Rambla del Raval, 8, 08001 Barcelona",Barcelona,Spain,41.3787744,2.1687047,4.0,1.0,0.0,0.0,0.0,1.0,0.0,
La Rubia,Spanish restaurant,"Carrer de Ferlandina, 29, 08001 Barcelona",Barcelona,Spain,41.3824035,2.1664259,4.2,701.0,44.0,17.0,72.0,169.0,399.0,€€
Fonda La Palmera (Boqueria),Restaurant,"Carrer de Jerusalem, 30, 08001 Barcelona",Barcelona,Spain,41.3819262,2.1708522,4.4,47.0,5.0,1.0,1.0,4.0,36.0,
Fonda Espanya,Mediterranean restaurant,"Carrer de Sant Pau, 9, 11, 08001 Barcelona",Barcelona,Spain,41.3799306,2.1728184,4.5,991.0,17.0,22.0,55.0,229.0,668.0,€€
O'Toxo 3 Brothers,Restaurant,"Carrer del Carme, 59, 08001 Barcelona",Barcelona,Spain,41.3810505,2.1682168,4.3,1777.0,74.0,58.0,165.0,409.0,1071.0,€
Majide,Japanese restaurant,"Carrer dels Tallers, 48, 08001 Barcelona",Barcelona,Spain,41.3850177,2.167559,4.5,768.0,13.0,11.0,45.0,187.0,512.0,€€€
La Monroe,Restaurant,"Plaça de Salvador Seguí, 1-9, 08001 Barcelona",Barcelona,Spain,41.37870119999999,2.1707164,4.3,2436.0,82.0,76.0,229.0,752.0,1297.0,€€
Wok To Walk,Asian restaurant,"Carrer de Sant Pau, 27, 08001 Barcelona",Barcelona,Spain,41.379192,2.1722369,4.2,742.0,39.0,28.0,71.0,202.0,402.0,€
Pizza Circus,Pizza restaurant,"Carrer Nou de la Rambla, 40, 08001 Barcelona",Barcelona,Spain,41.3779058,2.172901,4.7,2290.0,35.0,22.0,81.0,357.0,1795.0,€
Frenchy Tacos - Tacos francesos a Barcelona,Fast food restaurant,"Carrer de la Unió, 13, 08001 Barcelona",Barcelona,Spain,41.379278,2.1732184,4.6,154.0,11.0,1.0,2.0,14.0,126.0,
Hidden Factory Barcelona,Restaurant,"Carrer de Joaquín Costa, 24, 08001 Barcelona",Barcelona,Spain,41.3820482,2.166485,4.5,52.0,2.0,0.0,3.0,11.0,36.0,
Carlota Akaneya,Japanese restaurant,"Carrer del Pintor Fortuny, 32, 08001 Barcelona",Barcelona,Spain,41.382383,2.1686102,4.7,1960.0,31.0,18.0,69.0,252.0,1590.0,€€€
El Capricho Bcn,Doner kebab restaurant,"Av. del Paral·lel, 08001 Barcelona",Barcelona,Spain,41.3751811,2.1689153,4.8,6.0,0.0,0.0,0.0,1.0,5.0,
El Rincón Steak house,Grill,"Carrer del Carme, 28, 08001 Barcelona",Barcelona,Spain,41.382284,2.170197,4.3,1600.0,89.0,46.0,173.0,338.0,954.0,€€
El Pachuco,Mexican restaurant,"Carrer de Sant Pau, 110, 08001 Barcelona",Barcelona,Spain,41.3764866,2.1691639,4.5,3947.0,124.0,73.0,207.0,719.0,2824.0,€
UDON Raval,Asian restaurant,"Carrer dels Tallers, 69, 08002 Barcelona",Barcelona,Spain,41.3848222,2.1669688,4.0,799.0,43.0,47.0,126.0,265.0,318.0,€€
La palmera del desierto,Restaurant,"Carrer de l'Hospital, 82, 08001 Barcelona",Barcelona,Spain,41.3800614,2.1688676,4.4,55.0,4.0,1.0,3.0,10.0,37.0,€
Frivo,Fish & chips restaurant,"Carrer dels Àngels, 12, 08001 Barcelona",Barcelona,Spain,41.3823607,2.168303,4.0,4.0,1.0,0.0,0.0,0.0,3.0,
Taco Alto,Mexican restaurant,"Rambla del Raval, 2, 08001 Barcelona",Barcelona,Spain,41.3793837,2.1679774,4.0,1311.0,103.0,63.0,173.0,333.0,639.0,
Anmol Dahi Ballay,Pakistani restaurant,"C. de la Cera, 30, 08001 Barcelona",Barcelona,Spain,41.37849569999999,2.1656956,4.4,168.0,7.0,7.0,14.0,30.0,110.0,
Pure Cuisine,Asian restaurant,"C. de Pelai, 13, 08001 Barcelona",Barcelona,Spain,41.3857972,2.168025,4.1,314.0,31.0,11.0,22.0,83.0,167.0,€
El Pollo,Restaurant,"Carrer del Tigre, 31, Local 2, 08001 Barcelona",Barcelona,Spain,41.3822249,2.1640195,4.0,364.0,37.0,24.0,39.0,62.0,202.0,€
Zelig Barcelona,Restaurant,"Carrer del Carme, 116, 08001 Barcelona",Barcelona,Spain,41.3798515,2.166168,4.3,443.0,15.0,10.0,49.0,125.0,244.0,€
Tallers 76 Restaurant,Mediterranean restaurant,"Carrer dels Tallers, 76, 08001 Barcelona",Barcelona,Spain,41.3852778,2.165,4.0,506.0,36.0,24.0,60.0,148.0,238.0,€
Biocenter,Vegetarian restaurant,"Carrer del Pintor Fortuny, 25, 08001 Barcelona",Barcelona,Spain,41.3825075,2.1693781,4.4,1944.0,46.0,43.0,155.0,564.0,1136.0,
Lahori tandoori,Restaurant,"Rambla del Raval, 116, 08001 Barcelona",Barcelona,Spain,41.3796294,2.1674523,4.4,64.0,4.0,2.0,2.0,10.0,46.0,
Metropolitan Cafe,Hamburger restaurant,"Carrer dels Tallers, 14, 08001 Barcelona",Barcelona,Spain,41.3848093,2.169466,4.2,428.0,29.0,12.0,45.0,98.0,244.0,€€
Junoon,Restaurant,"Carrer d'Espalter, 4, 08001 Barcelona",Barcelona,Spain,41.378513,2.1706625,5.0,1.0,0.0,0.0,0.0,0.0,1.0,
DR.BEER & MR.FRIED,Restaurant,"Carrer de la Riera Alta, 33, 08001 Barcelona",Barcelona,Spain,41.3803514,2.1657853,4.7,717.0,11.0,9.0,38.0,102.0,557.0,€€
Bar Restaurant Plaça Pedró,Restaurant,"Plaça del Pedró, 8, Sala Xavier Miserachs, 08001 Barcelona",Barcelona,Spain,41.3796351,2.1660154,4.2,164.0,14.0,8.0,13.0,18.0,111.0,
Bar Restaurante El Cortico,Latin American restaurant,"C. de la Cera, 08001 Barcelona",Barcelona,Spain,41.3788661,2.1658996,4.8,60.0,2.0,0.0,0.0,3.0,55.0,
Bun Bo Barcelona (Gótico),Vietnamese restaurant,"Carrer dels Sagristans, 3, 08002 Barcelona",Barcelona,Spain,41.385075,2.1750278,4.2,3588.0,163.0,127.0,383.0,1110.0,1805.0,€
Restaurante Casa de Comidas Buenavista,Restaurant,"Ronda de Sant Antoni, 84, 08001 Barcelona",Barcelona,Spain,41.383797,2.1640672,4.7,32.0,0.0,0.0,1.0,7.0,24.0,
Lluis de les Moles,Restaurant,"Carrer de les Moles, 25, 08002 Barcelona",Barcelona,Spain,41.38722,2.172812,4.4,333.0,9.0,5.0,23.0,117.0,179.0,€€
Hard Rock Cafe,American restaurant,"Pl. de Catalunya, 21, 08002 Barcelona",Barcelona,Spain,41.3858942,2.1707583,4.3,16975.0,510.0,516.0,1644.0,4340.0,9965.0,€€
Dera Restaurant,Pakistani restaurant,"Carrer de Salvà, 10, 08004 Barcelona",Barcelona,Spain,41.3744331,2.1665074,4.6,299.0,13.0,4.0,7.0,29.0,246.0,
Terraza Alaire Ramblas,Restaurant,"Gran Teatre del Liceu, Carrer de Sant Pau, 9, 08001 Barcelona",Barcelona,Spain,41.3799095,2.173016,4.1,27.0,2.0,2.0,3.0,5.0,15.0,
BENZiNA,Italian restaurant,"Passatge de Pere Calders, 6, 08015 Barcelona",Barcelona,Spain,41.3761861,2.1627583,4.5,1013.0,25.0,31.0,59.0,223.0,675.0,€€
Es tastet,Catalonian restaurant,"08015, C. del Comte Borrell, 72, 08015 Barcelona",Barcelona,Spain,41.3793567,2.1603401,4.5,466.0,7.0,6.0,33.0,123.0,297.0,€
Moments,Fine dining restaurant,"Passeig de Gràcia, 38, 40, 08007 Barcelona",Barcelona,Spain,41.3912786,2.1667383,4.5,307.0,8.0,9.0,15.0,59.0,216.0,€€€€
"Restaurante Los Hermanos | Villarroel, Barcelona",Filipino restaurant,"08011, C. de Villarroel, 26, 08011 Barcelona",Barcelona,Spain,41.3816586,2.1616503,4.5,364.0,8.0,6.0,30.0,81.0,239.0,€
Grill Room Bar Thonet,Restaurant,"Carrer dels Escudellers, 8, 08002 Barcelona",Barcelona,Spain,41.379278,2.1760964,4.4,686.0,40.0,27.0,42.0,119.0,458.0,
Froots & Roots,Health food restaurant,"Carrer del Peu de la Creu, 19, 08001 Barcelona",Barcelona,Spain,41.3810393,2.1670328,4.9,254.0,0.0,1.0,1.0,10.0,242.0,
Sasha Bar,Restaurant,"08004, Carrer de Margarit, 18, 08004 Barcelona",Barcelona,Spain,41.3738632,2.1635936,4.4,869.0,21.0,21.0,72.0,219.0,536.0,
Da nanni,Italian restaurant,"Carrer de Gravina, 8, 08001 Barcelona",Barcelona,Spain,41.38514869999999,2.1657692,4.4,30.0,1.0,1.0,3.0,4.0,21.0,
L'Ovella Negra Ramblas,Restaurant,"Carrer de les Sitges, 5, 08001 Barcelona",Barcelona,Spain,41.3844502,2.1695677,4.2,5477.0,154.0,181.0,777.0,1772.0,2593.0,€
Prime Doner & Kabab,Kebab shop,"Abdul Rashid, Carrer de la Riera Alta, 45, 08001 Barcelona",Barcelona,Spain,41.3803209,2.1650349,4.1,82.0,4.0,2.0,15.0,18.0,43.0,
Tragaluz,Catalonian restaurant,"Passatge de la Concepció, 5, 08008 Barcelona",Barcelona,Spain,41.394726,2.160481,4.2,1273.0,64.0,53.0,128.0,330.0,698.0,€€€
Mustafa’s Döner & Grill,Turkish restaurant,"Carrer de Ferran, 16, 08002 Barcelona",Barcelona,Spain,41.380994,2.1751076,4.4,629.0,45.0,15.0,28.0,74.0,467.0,
Bar Veraz,Restaurant,"Av. de Francesc Cambó, 14, 08003 Barcelona",Barcelona,Spain,41.3859868,2.1777293,4.4,744.0,45.0,23.0,35.0,145.0,496.0,
Belliny Brunch Barcelona,Brunch restaurant,"Gran Via de les Corts Catalanes, 555, 08011 Barcelona",Barcelona,Spain,41.3839529,2.1603693,4.5,842.0,28.0,29.0,49.0,147.0,589.0,€€
"Rasoi, Restaurant Indian",Indian restaurant,"Carrer de Londres, 63, 08036 Barcelona",Barcelona,Spain,41.3919956,2.1483534,4.6,1176.0,22.0,15.0,53.0,216.0,870.0,€€
Chök The Chocolate Kitchen,Cake shop,"Carrer de les Ramelleres, 26, 08001 Barcelona",Barcelona,Spain,41.3846815,2.1683065,4.5,956.0,34.0,25.0,56.0,181.0,660.0,€€
Bar Bar - The Indian Gastronomia,Indian restaurant,"Carrer d'Aribau, 146, 08036 Barcelona",Barcelona,Spain,41.3920167,2.1549388,4.6,441.0,9.0,11.0,26.0,49.0,346.0,
Restaurante Rosa Negra,Mexican restaurant,"Via Laietana, 46, 08003 Barcelona",Barcelona,Spain,41.3865044,2.1756469,4.3,5150.0,203.0,153.0,448.0,1490.0,2856.0,€
Comida Catalana,Restaurant,"C/ de Pau Claris, 143, 08009 Barcelona",Barcelona,Spain,41.3937879,2.16555,5.0,1.0,0.0,0.0,0.0,0.0,1.0,
Dalston Coffee Barcelona,Cafe,"Carrer de les Ramelleres, 16, 08001 Barcelona",Barcelona,Spain,41.3845342,2.1684743,4.7,671.0,13.0,8.0,20.0,67.0,563.0,€
Burger Heroes Barcelona,Hamburger restaurant,"Carrer Nou de Zurbano, 8, 08002 Barcelona",Barcelona,Spain,41.379381,2.175815,4.9,409.0,3.0,3.0,5.0,11.0,387.0,
The Roof,Restaurant,"Av. de Francesc Cambó, 14, 08003 Barcelona",Barcelona,Spain,41.38594399999999,2.1778103,4.1,76.0,7.0,4.0,4.0,21.0,40.0,
Les Filles Cafè,Restaurant,"Carrer de Minerva, 2, 08006 Barcelona",Barcelona,Spain,41.3962051,2.1568945,4.0,810.0,67.0,52.0,96.0,197.0,398.0,€€
Cafè de les Delícies,Cafe,"Rambla del Raval, 47, 08001 Barcelona",Barcelona,Spain,41.3781229,2.1705478,4.3,410.0,18.0,8.0,39.0,123.0,222.0,€€
Cecconi's Barcelona,Italian restaurant,"Passeig de Colom, 20, 08002 Barcelona",Barcelona,Spain,41.37848899999999,2.1793752,4.4,1087.0,34.0,25.0,90.0,241.0,697.0,€€€
Grasshopper Ramen Bar,Ramen restaurant,"08003, Plaça de la Llana, 9, 08003 Barcelona",Barcelona,Spain,41.3851253,2.1792726,4.4,1806.0,50.0,45.0,123.0,492.0,1096.0,€
Racó de la Vila,Mediterranean restaurant,"Carrer de la Ciutat de Granada, 33, 08005 Barcelona",Barcelona,Spain,41.3974007,2.1989328,4.3,3730.0,118.0,126.0,309.0,1035.0,2142.0,€€
Mailuna,Tea house,"Carrer de Valldonzella, 48, 08001 Barcelona",Barcelona,Spain,41.3832535,2.164771,4.6,332.0,4.0,3.0,13.0,72.0,240.0,€€
Honest Greens Born,Health food restaurant,"Pla de Palau, 11, 08003 Barcelona",Barcelona,Spain,41.3835305,2.1832072,4.4,1957.0,98.0,45.0,115.0,330.0,1369.0,€€
Teatre Principal de Barcelona,Restaurant,"La Rambla, 27-29, 08001 Barcelona",Barcelona,Spain,41.3786268,2.175322,4.1,67.0,2.0,2.0,12.0,21.0,30.0,
365,Cafe,"Carrer Nou de la Rambla, 46, Bajos, 08001 Barcelona",Barcelona,Spain,41.3776338,2.1726742,4.1,987.0,85.0,53.0,110.0,214.0,525.0,€
Honest Greens Tuset,Health food restaurant,"Carrer de Tuset, 4, 08006 Barcelona",Barcelona,Spain,41.3953382,2.1529932,4.4,2255.0,90.0,65.0,158.0,455.0,1487.0,€€
365,Cafe,"Carrer de l'Hospital, 103, 08001 Barcelona",Barcelona,Spain,41.3799606,2.1688493,4.0,301.0,22.0,16.0,44.0,68.0,151.0,€
Ølgod Craft Beer Bar,Brewpub,"Carrer de l'Hospital, 74, 08001 Barcelona",Barcelona,Spain,41.3801451,2.1691803,4.5,1153.0,30.0,16.0,67.0,328.0,712.0,€€
Forn Boix,Bakery,"08001, Carrer de l'Hospital, 20, 08001 Barcelona",Barcelona,Spain,41.3810051,2.1723394,4.0,59.0,6.0,5.0,4.0,10.0,34.0,
Hotel España,Hotel,"Carrer de Sant Pau, 9-11, 08001 Barcelona",Barcelona,Spain,41.3799105,2.1728412,4.4,815.0,21.0,20.0,63.0,207.0,504.0,
Honest Greens Westfield Glories,Restaurant,"Avinguda Diagonal, 208, 08018 Barcelona",Barcelona,Spain,41.4052917,2.1928236,4.4,323.0,21.0,8.0,15.0,49.0,230.0,
"Mandarin Oriental, Barcelona",Hotel,"Passeig de Gràcia, 38-40, 08007 Barcelona",Barcelona,Spain,41.3911676,2.1665773,4.6,2127.0,55.0,47.0,79.0,359.0,1587.0,
Cafetería Y Heladería Ayub,Coffee shop,"Carrer de l'Hospital, 81, 08001 Barcelona",Barcelona,Spain,41.3803232,2.1702668,4.9,15.0,0.0,0.0,0.0,1.0,14.0,
The Barcelona EDITION,Restaurant,"Av. de Francesc Cambó, 14, 08003 Barcelona",Barcelona,Spain,41.38594399999999,2.1778103,4.3,121.0,16.0,1.0,5.0,13.0,86.0,
Pastelería Tartisse,Cake shop,"Carrer del Notariat, 3, 08001 Barcelona",Barcelona,Spain,41.3828785,2.1691056,4.8,35.0,1.0,0.0,2.0,0.0,32.0,
Hotel 1898,Hotel,"La Rambla, 109, 08002 Barcelona",Barcelona,Spain,41.3834945,2.1710008,4.5,1471.0,44.0,22.0,80.0,318.0,1007.0,
Andante,Hotel,"Av. de les Drassanes, 23, 08001 Barcelona",Barcelona,Spain,41.3764627,2.1726126,4.4,949.0,18.0,15.0,69.0,315.0,532.0,
Restaurant Cal Massagran braseria gallega,Catalonian restaurant,"Carrer Sta. Margarida, 13, 08793 Cantallops, Barcelona",Barcelona,Spain,41.3679941,1.8002477,4.2,230.0,10.0,7.0,35.0,59.0,119.0,€
Hotel Lleo,Hotel,"C. de Pelai, 22, 24, 08001 Barcelona",Barcelona,Spain,41.3856192,2.1664668,4.1,813.0,34.0,30.0,111.0,294.0,344.0,
Centre Comercial El Triangle,Shopping mall,"Pl. de Catalunya, 1, 4, 08002 Barcelona",Barcelona,Spain,41.3858752,2.1691163,4.0,8261.0,217.0,341.0,1689.0,3058.0,2956.0,
Chök The Chocolate Kitchen,Chocolate shop,"Carrer d'Astúries, 93, 08024 Barcelona",Barcelona,Spain,41.4053128,2.1572669,4.4,510.0,23.0,17.0,31.0,102.0,337.0,
Los Barbados,Restaurant,"Carrer dels Escudellers, 8, 08002 Barcelona",Barcelona,Spain,41.3791535,2.1762857,4.2,137.0,8.0,3.0,18.0,35.0,73.0,
OUAD LOUKOS,Restaurant,"Carrer de l'Hospital, 126, 08001 Barcelona",Barcelona,Spain,41.3795896,2.1671537,4.6,10.0,0.0,0.0,1.0,2.0,7.0,
menja futur,Takeout restaurant,"Carrer dels Tallers, 47, 08001 Barcelona",Barcelona,Spain,41.384822,2.1678139,4.0,2.0,0.0,0.0,1.0,0.0,1.0,
Gastronomic Centre (c/ Barcelona).,Restaurant,"Carrer del Pintor Fortuny, 12, 08001 Barcelona",Barcelona,Spain,41.3830962,2.1699359,4.0,1.0,0.0,0.0,0.0,1.0,0.0,
Kak Koy,Japanese restaurant,"Carrer de Ripoll, 16, 08002 Barcelona",Barcelona,Spain,41.3853659,2.1754124,4.8,8.0,0.0,0.0,1.0,0.0,7.0,
Nineteen Restaurant,Mediterranean restaurant,"Pl. de Catalunya, 19, 08002 Barcelona",Barcelona,Spain,41.3861985,2.1710144,4.3,339.0,17.0,8.0,24.0,93.0,197.0,
Pla B,Catalonian restaurant,"Carrer de Bellafila, 5, 08002 Barcelona",Barcelona,Spain,41.3823424,2.1785061,4.4,828.0,24.0,30.0,59.0,181.0,534.0,€€€
Anduriña,Restaurant,"C. Comtal, 30, 08002 Barcelona",Barcelona,Spain,41.3866498,2.1738819,4.3,657.0,30.0,18.0,71.0,147.0,391.0,
Ascent Restaurant,Mediterranean restaurant,"Carrer dels Arcs, 10, 08002 Barcelona",Barcelona,Spain,41.3847267,2.1744357,4.4,202.0,8.0,6.0,12.0,57.0,119.0,
Restaurant Loto,Asian restaurant,"C. del Call, 17, 08002 Barcelona",Barcelona,Spain,41.3823771,2.1763418,4.8,912.0,13.0,9.0,21.0,82.0,787.0,
El Pintor,Catalonian restaurant,"Carrer de Sant Honorat, 7, 08002 Barcelona",Barcelona,Spain,41.3830304,2.1759709,4.3,756.0,28.0,32.0,60.0,213.0,423.0,€€
Five Guys Plaza Cataluña,Hamburger restaurant,"Centro comercial El Triangle, Pl. de Catalunya, 1-4, 08002 Barcelona",Barcelona,Spain,41.3860063,2.1694249,4.1,2638.0,215.0,120.0,287.0,633.0,1383.0,€€
Restaurant Can Culleretes,Catalonian restaurant,"Carrer d'en Quintana, 5, 08002 Barcelona",Barcelona,Spain,41.3812502,2.1744565,4.2,3800.0,137.0,136.0,387.0,1167.0,1973.0,€€
Restaurante Informal,Mediterranean restaurant,"Passeig de Colom, 9, 08002 Barcelona",Barcelona,Spain,41.3801936,2.1808453,4.4,576.0,12.0,18.0,40.0,149.0,357.0,€€€
The Greenhouse,Restaurant,"C. de Bergara, 8, 08002 Barcelona",Barcelona,Spain,41.3860816,2.1683428,4.3,99.0,3.0,4.0,9.0,32.0,51.0,
La Cassola Restaurant,Restaurant,"Carrer de Sant Sever, 3, 08002 Barcelona",Barcelona,Spain,41.383095,2.175234,4.5,385.0,9.0,13.0,24.0,84.0,255.0,€
Restaurant La Rioja,Restaurant,"Carrer de Duran i Bas, 5, Bajos, 08002 Barcelona",Barcelona,Spain,41.385511,2.1739953,4.1,289.0,15.0,11.0,34.0,104.0,125.0,€€
Kulas,Mexican restaurant,"Passeig de Colom, 7, 08002 Barcelona",Barcelona,Spain,41.3804011,2.181045,4.1,206.0,17.0,9.0,23.0,44.0,113.0,€€
Amades Restaurant,Restaurant,"Carrer dels Banys Nous, 8, Local, 08002 Barcelona",Barcelona,Spain,41.3822053,2.1751533,4.8,286.0,5.0,1.0,6.0,12.0,262.0,
La Dolça Herminia,Restaurant,"Carrer de les Magdalenes, 27, 08002 Barcelona",Barcelona,Spain,41.3865861,2.1742479,4.0,2761.0,117.0,147.0,420.0,1048.0,1029.0,€
COAC Restaurant,Restaurant,"Plaça Nova, 5, 08002 Barcelona",Barcelona,Spain,41.3844569,2.1749944,4.0,80.0,11.0,2.0,7.0,20.0,40.0,
La Esquina,Restaurant,"C. de Bergara, 2, 08002 Barcelona",Barcelona,Spain,41.3858977,2.1680375,4.3,1106.0,41.0,34.0,88.0,277.0,666.0,€€
Restaurant Santa Anna,Mediterranean restaurant,"C. de Santa Anna, 8, 08002 Barcelona",Barcelona,Spain,41.38502889999999,2.1712388,4.2,1886.0,84.0,81.0,210.0,600.0,911.0,€
Restaurant Bidasoa,Basque restaurant,"Carrer d'en Serra, 21, 08002 Barcelona",Barcelona,Spain,41.379587,2.1790125,4.4,517.0,19.0,19.0,27.0,111.0,341.0,€
Grill Restaurant,Restaurant,"Carrer de la Freneria, 5, 08002 Barcelona",Barcelona,Spain,41.3837027,2.1773463,4.6,1210.0,44.0,27.0,36.0,148.0,955.0,€€
The Quick Greek,Greek restaurant,"Carrer dels Escudellers, 42, 08002 Barcelona",Barcelona,Spain,41.38031,2.1773103,4.5,527.0,24.0,15.0,29.0,89.0,370.0,€
Sensi Bistro (Tapes),Tapas restaurant,"Carrer del Regomir, 4, 08002 Barcelona",Barcelona,Spain,41.3815103,2.1789192,4.5,954.0,29.0,25.0,60.0,128.0,712.0,€€
La Lluna,Mediterranean restaurant,"C. de Santa Anna, 20, 08002 Barcelona",Barcelona,Spain,41.3852956,2.171631,4.2,1719.0,55.0,58.0,182.0,596.0,828.0,€€
Cachaca Restaurant,Italian restaurant,"Carrer d'Ataülf, 5, 08002 Barcelona",Barcelona,Spain,41.3813016,2.178741,4.5,589.0,18.0,20.0,26.0,113.0,412.0,€€
Vegetalia Gòtic,Vegetarian restaurant,"Carrer dels Escudellers, 54, 08002 Barcelona",Barcelona,Spain,41.3804361,2.177675,4.2,1583.0,83.0,69.0,162.0,384.0,885.0,€€
Capet Restaurant,Restaurant,"Carrer del Cometa, 5, 08002 Barcelona",Barcelona,Spain,41.3821978,2.1790909,4.5,485.0,29.0,11.0,9.0,56.0,380.0,
Restaurant Contraban,Restaurant,"Carrer de Riudarenes, 7, 08002 Barcelona",Barcelona,Spain,41.3809626,2.1795896,4.6,108.0,2.0,1.0,6.0,17.0,82.0,
Restaurant La Boqueria,Mediterranean restaurant,"Carrer de la Boqueria, 17, 08002 Barcelona",Barcelona,Spain,41.3814709,2.1739929,4.2,2551.0,196.0,123.0,234.0,528.0,1470.0,€€
Restaurant Sedna,Mediterranean restaurant,"Passeig de Colom, 5, 08002 Barcelona",Barcelona,Spain,41.380707,2.1812213,4.3,752.0,68.0,28.0,46.0,110.0,500.0,€€
Espai Quera: Llibres i platillos,Restaurant,"Carrer de Petritxol, 2, 08002 Barcelona",Barcelona,Spain,41.3825096,2.1733552,4.7,498.0,7.0,5.0,7.0,68.0,411.0,€€
Los Caracoles,Restaurant,"Carrer dels Escudellers, 14, 08002 Barcelona",Barcelona,Spain,41.379654,2.1765197,4.2,3059.0,196.0,146.0,292.0,760.0,1665.0,€€
Ocaña,Restaurant,"Pl. Reial, 13-15, 08002 Barcelona",Barcelona,Spain,41.3797595,2.1756823,4.2,4155.0,267.0,136.0,400.0,1020.0,2332.0,€€
Restaurant Italià Rossini,Italian restaurant,"Pl. Reial, 13, 08002 Barcelona",Barcelona,Spain,41.3798871,2.1758789,4.2,2901.0,156.0,109.0,280.0,772.0,1584.0,€€
L'Antic Bocoi del Gòtic,Catalonian restaurant,"Baixada de Viladecols, 3, 08002 Barcelona",Barcelona,Spain,41.3820757,2.1795288,4.6,825.0,10.0,11.0,32.0,177.0,595.0,€€
Shunka,Japanese restaurant,"Carrer dels Sagristans, 5, 08002 Barcelona",Barcelona,Spain,41.3851944,2.17515,4.6,1588.0,29.0,17.0,60.0,292.0,1190.0,€€€
El Salón,Mediterranean restaurant,"Carrer de l'Hostal d'en Sol, 6, 08002 Barcelona",Barcelona,Spain,41.3817951,2.1799787,4.5,502.0,12.0,12.0,27.0,117.0,334.0,€€
Milk Bar & Bistro,Restaurant,"Carrer d'en Gignàs, 21, 08002 Barcelona",Barcelona,Spain,41.3813167,2.1800917,4.6,3203.0,60.0,60.0,166.0,651.0,2266.0,€€
Restaurant La Taverneta Barcelona,Mediterranean restaurant,"Carrer de Francesc Pujols, 3, 08002 Barcelona",Barcelona,Spain,41.3843583,2.172937,4.4,718.0,27.0,15.0,46.0,161.0,469.0,€
homemade tapas,Tapas restaurant,"Carrer de la Llibreteria, 18, 08002 Barcelona",Barcelona,Spain,41.3833027,2.1775365,4.2,25.0,1.0,2.0,1.0,8.0,13.0,
Buen Bocado,Restaurant,"Carrer dels Escudellers, 58, 08002 Barcelona",Barcelona,Spain,41.3805484,2.1779524,4.5,230.0,7.0,5.0,12.0,42.0,164.0,€
IAN Take away,Restaurant,"Carrer dels Escudellers, 58, 08002 Barcelona",Barcelona,Spain,41.3805138,2.1779519,4.3,11.0,0.0,1.0,2.0,1.0,7.0,
Venus Delicatessen Barcelona,Restaurant,"Carrer d'Avinyó, 25, 08002 Barcelona",Barcelona,Spain,41.380714,2.177924,4.0,732.0,65.0,45.0,87.0,177.0,358.0,€€
Restaurant Maccabi,Kosher restaurant,"La Rambla, 79, 08002 Barcelona",Barcelona,Spain,41.3814932,2.1727303,4.1,1277.0,108.0,62.0,110.0,294.0,703.0,€€
128 Rambla Restaurant,Mediterranean restaurant,"128 Rambla Restaurant, La Rambla, 128, 08002 Barcelona",Barcelona,Spain,41.3843222,2.1712893,4.2,46.0,2.0,0.0,7.0,16.0,21.0,
Asian Ways (Barri Gòtic),Asian restaurant,"Carrer de Julià Portet, 6, 08002 Barcelona",Barcelona,Spain,41.3861927,2.1748676,4.5,694.0,10.0,10.0,44.0,156.0,474.0,
La Pachuca,Mexican restaurant,"Carrer d'en Carabassa, 19, 08002 Barcelona",Barcelona,Spain,41.3799437,2.1790849,4.4,1592.0,101.0,30.0,66.0,252.0,1143.0,€€
Restaurant Beirut,Lebanese restaurant,"Carrer de Josep Anselm Clavé, 7, 08002 Barcelona",Barcelona,Spain,41.3771118,2.1777375,4.0,1414.0,155.0,71.0,140.0,287.0,761.0,€
la picnic,Korean restaurant,"Carrer d'Ataülf, 10, 08002 Barcelona",Barcelona,Spain,41.3811185,2.178838,4.5,183.0,8.0,7.0,14.0,18.0,136.0,€
Restaurant Catedral 1951,Restaurant,"Av. de la Catedral, 7, 08002 Barcelona",Barcelona,Spain,41.384962,2.1756663,4.0,32.0,7.0,0.0,0.0,3.0,22.0,
RESTAURANT RACÓ DEL NÚRIA,Mediterranean restaurant,"La Rambla, 133, 1º Piso, 08002 Barcelona",Barcelona,Spain,41.3851738,2.1697966,4.2,200.0,10.0,8.0,21.0,64.0,97.0,€€
MATSURI Sushi,Japanese restaurant,"Plaça del Regomir, 1, 08002 Barcelona",Barcelona,Spain,41.3817758,2.1788377,4.3,637.0,42.0,26.0,53.0,118.0,398.0,
Kynoto Sushi Bar,Japanese restaurant,"Carrer del Correu Vell, 8, 08002 Barcelona",Barcelona,Spain,41.3815819,2.1798377,4.4,489.0,20.0,18.0,35.0,97.0,319.0,€€
Restaurant Victor's Barcelona,Restaurant,"Carrer dels Escudellers, 40, 08002 Barcelona",Barcelona,Spain,41.3801968,2.1770776,4.1,147.0,23.0,5.0,4.0,18.0,97.0,
Colom Restaurant,Mediterranean restaurant,"Carrer dels Escudellers, 33, 08002 Barcelona",Barcelona,Spain,41.37985279999999,2.1765,4.6,7629.0,278.0,151.0,333.0,808.0,6059.0,€€
Sensi Tapas,Tapas restaurant,"Carrer Ample, 24, 08002 Barcelona",Barcelona,Spain,41.3802567,2.1799008,4.5,1299.0,46.0,34.0,66.0,200.0,953.0,€€
Tapes Barcelona Restaurant,Mediterranean restaurant,"Carrer Ample, 46, 08002 Barcelona",Barcelona,Spain,41.38097519999999,2.1804071,4.1,754.0,68.0,43.0,60.0,145.0,438.0,€
Sports Bar Italian Food,Italian restaurant,"Carrer Ample, 51, 08002 Barcelona",Barcelona,Spain,41.3812675,2.1804216,4.4,2313.0,109.0,44.0,148.0,438.0,1574.0,€€
Mercer Restaurant,Mediterranean restaurant,"C. dels Lledó, 7, 08002 Barcelona",Barcelona,Spain,41.3825814,2.1789441,4.6,45.0,1.0,1.0,1.0,8.0,34.0,
Restaurant Prado De Flores,Mediterranean restaurant,"C. de Santa Anna, 11, 08002 Barcelona",Barcelona,Spain,41.3851526,2.1711624,4.2,1167.0,73.0,40.0,122.0,244.0,688.0,€€
Louro - Restaurante do Centro Galego,Galician restaurant,"Rambla de los Capuchinos, 37, Principal, 08002 Barcelona",Barcelona,Spain,41.379192,2.174701,4.7,840.0,13.0,13.0,33.0,137.0,644.0,€€
Mesón Jesús Restaurante,Restaurant,"Carrer dels Cecs de la Boqueria, 4, 08002 Barcelona",Barcelona,Spain,41.3818561,2.1747463,4.6,1732.0,43.0,41.0,83.0,291.0,1274.0,€
Da Nanni Pizzeria,Restaurant,"Carrer de la Llibreteria, 10, 08002 Barcelona",Barcelona,Spain,41.3831748,2.1774032,4.5,1859.0,103.0,44.0,65.0,178.0,1469.0,€
Il Mercante di Venezia,Italian restaurant,"Carrer de Josep Anselm Clavé, 11, 08002 Barcelona",Barcelona,Spain,41.37737389999999,2.1779032,4.4,1544.0,40.0,37.0,98.0,431.0,938.0,€€
The Benedict Brunch Barcelona,Brunch restaurant,"Carrer d'en Gignàs, 23, 08002 Barcelona",Barcelona,Spain,41.381433,2.180227,4.4,2163.0,67.0,66.0,188.0,489.0,1353.0,€€
Gran Viana,Restaurant,"Carrer dels Escudellers, 24, 08002 Barcelona",Barcelona,Spain,41.3798803,2.1766945,4.7,570.0,4.0,9.0,17.0,85.0,455.0,€€
Avinyo 10 Restaurant,Restaurant,"Carrer d'Avinyó, 8, 08002 Barcelona",Barcelona,Spain,41.3813338,2.1759662,4.0,1431.0,139.0,81.0,138.0,299.0,774.0,€€
Mi Burrito y Yo,Restaurant,"Carrer del Pas de l'Ensenyança, 2, 08002 Barcelona",Barcelona,Spain,41.3819507,2.1767127,4.0,854.0,96.0,49.0,78.0,194.0,437.0,€€
La Fonda,Restaurant,"Carrer dels Escudellers, 10, 08002 Barcelona",Barcelona,Spain,41.3794778,2.1762819,4.0,6059.0,491.0,307.0,769.0,1823.0,2669.0,€€
Restaurant Lounge My Way,Mediterranean restaurant,"4-10, Carrer de les Heures, 08002 Barcelona",Barcelona,Spain,41.3808933,2.1754146,4.5,1014.0,28.0,30.0,52.0,196.0,708.0,€€
Koy Shunka,Japanese restaurant,"Carrer d'en Copons, 7, 08002 Barcelona",Barcelona,Spain,41.3858377,2.1753023,4.7,409.0,17.0,5.0,11.0,23.0,353.0,€€€€
Le Bouchon,Tapas restaurant,"C. dels Lledó, 7, 08002 Barcelona",Barcelona,Spain,41.3825882,2.1789431,4.3,170.0,10.0,4.0,14.0,38.0,104.0,
Pasta Market,Italian restaurant,"La Rambla, 77, 08002 Barcelona",Barcelona,Spain,41.3813654,2.1728349,4.5,1199.0,35.0,24.0,85.0,172.0,883.0,€€
Gourmet Sensi,Tapas restaurant,"Carrer de Milans, 4, 08002 Barcelona",Barcelona,Spain,41.3806174,2.1793191,4.6,1063.0,28.0,17.0,54.0,157.0,807.0,€€
Salterio,Restaurant,"C/ de Salomó ben Adret, 4, 08002 Barcelona",Barcelona,Spain,41.3825121,2.1760106,4.7,1206.0,29.0,13.0,26.0,200.0,938.0,€€
Sushi,Sushi restaurant,"Carrer d'en Gignàs, 15, 08002 Barcelona",Barcelona,Spain,41.3832697,2.1732522,4.4,16.0,0.0,1.0,1.0,4.0,10.0,
Els 4Gats,Restaurant,"Carrer de Montsió, 3, 08002 Barcelona",Barcelona,Spain,41.38580959999999,2.1735743,4.0,5519.0,412.0,270.0,665.0,1589.0,2583.0,€€
Fauna Restaurant,Restaurant,"Carrer del Duc, 15, 08002 Barcelona",Barcelona,Spain,41.3846923,2.1728835,4.4,15.0,0.0,1.0,2.0,2.0,10.0,
Bilbao Berria Barcelona,Basque restaurant,"Plaça Nova, 3, 08002 Barcelona",Barcelona,Spain,41.3842023,2.1748694,4.2,4581.0,242.0,155.0,509.0,1378.0,2297.0,€€
Maoz Vegetarian,Vegetarian restaurant,"Carrer de Ferran, 13, 08002 Barcelona",Barcelona,Spain,41.3808593,2.1746778,4.5,1685.0,59.0,35.0,74.0,311.0,1206.0,€
Federal Cafè Gòtic,Restaurant,"Passatge de la Pau, 11, 08002 Barcelona",Barcelona,Spain,41.3780022,2.1777241,4.1,2495.0,195.0,110.0,218.0,585.0,1387.0,€€
ORIO BCN Gòtic,Basque restaurant,"Carrer de Ferran, 38, 08002 Barcelona",Barcelona,Spain,41.3819595,2.1763021,4.1,1210.0,69.0,54.0,145.0,414.0,528.0,€€
Gallo Nero Plaça de Sant Jaume,Italian restaurant,"C. de Jaume I, 3, 08002 Barcelona",Barcelona,Spain,41.3830476,2.1774103,4.6,902.0,37.0,16.0,34.0,113.0,702.0,€
Bar Mono Barcelona,Restaurant,"Plaça de Sant Josep Oriol, 4, 08002 Barcelona",Barcelona,Spain,41.3824773,2.1743159,4.3,1071.0,78.0,39.0,69.0,227.0,658.0,€€
Bahia,Restaurant,"Carrer dels Escudellers, 46, 08002 Barcelona",Barcelona,Spain,41.3803565,2.1774555,4.2,306.0,19.0,9.0,37.0,77.0,164.0,€
Bo de B,Sandwich shop,"Carrer de la Fusteria, 12.esquina, Carrer de la Mercè, 35, 08002 Barcelona",Barcelona,Spain,41.3812176,2.1811277,4.5,1989.0,76.0,33.0,97.0,304.0,1479.0,€
Canaletes Cerveseria,Restaurant,"La Rambla, 127, 08002 Barcelona",Barcelona,Spain,41.3849793,2.1701009,4.6,63.0,5.0,1.0,0.0,4.0,53.0,
Golfo de Bizkaia Pi,Basque restaurant,"Carrer del Pi, 5, 08002 Barcelona",Barcelona,Spain,41.383161,2.173874,4.4,369.0,11.0,11.0,29.0,94.0,224.0,€€
Restaurant Vegetarià Hindú Govinda,Vegetarian restaurant,"Pl. de la Vila de Madrid, 4, 08002 Barcelona",Barcelona,Spain,41.384217,2.172575,4.3,818.0,38.0,26.0,57.0,198.0,499.0,€
Wok To Walk,Asian restaurant,"C. de Jaume I, 7, 08002 Barcelona",Barcelona,Spain,41.3832343,2.1777271,4.3,1217.0,34.0,25.0,116.0,352.0,690.0,€
Buenas Migas,Cafe,"Baixada de Santa Clara, 2, 08002 Barcelona",Barcelona,Spain,41.3838103,2.1772981,4.4,755.0,14.0,12.0,74.0,221.0,434.0,€
Puglia In Tavola,Italian restaurant,"Carrer dels Escudellers, 41, 08002 Barcelona",Barcelona,Spain,41.38,2.1766667,4.2,646.0,42.0,20.0,61.0,149.0,374.0,€
Satan's Coffee Corner,Cafe,"Carrer de l'Arc de Sant Ramon del Call, 11, 08002 Barcelona",Barcelona,Spain,41.382646,2.175207,4.2,2158.0,177.0,86.0,196.0,435.0,1264.0,€€
FitBar Gòtic - Açai Bowls & Healthy Food,Health food restaurant,"Carrer dels Escudellers, 56, 08002 Barcelona",Barcelona,Spain,41.3804752,2.1778682,4.6,171.0,3.0,4.0,10.0,18.0,136.0,
Barrio Santo restaurante peruano,Restaurant,"Carrer dels Templers, 6, 08002 Barcelona",Barcelona,Spain,41.38150539999999,2.1779077,4.6,533.0,19.0,5.0,19.0,67.0,423.0,
Bopiz,Pizza restaurant,"Carrer de Ferran, 39, 08002 Barcelona",Barcelona,Spain,41.3818312,2.1759287,4.9,434.0,2.0,1.0,6.0,20.0,405.0,
Hotel Pulitzer,Restaurant,"C. de Bergara, 8, 08002 Barcelona",Barcelona,Spain,41.3860704,2.1683553,4.4,1355.0,52.0,35.0,85.0,384.0,799.0,
cookandtaste,Restaurant,"Carrer del Paradís, 3, 08002 Barcelona",Barcelona,Spain,41.38328,2.1769149,5.0,5.0,0.0,0.0,0.0,0.0,5.0,
Kiosko Universal,Mediterranean restaurant,"Mercat de la Boqueria, Parada 691, 08002 Barcelona",Barcelona,Spain,41.381711,2.172176,4.4,548.0,27.0,14.0,23.0,110.0,374.0,€€
Velada - Vegan Tapas and Cocktails,Vegan restaurant,"Carrer de Ferran, 25, 08002 Barcelona",Barcelona,Spain,41.3812891,2.1752575,4.9,146.0,2.0,1.0,2.0,6.0,135.0,
Greenco healthy organic food,Restaurant,"Pl. Reial, 8, 08002 Barcelona",Barcelona,Spain,41.3804866,2.1752598,4.1,455.0,44.0,28.0,48.0,65.0,270.0,
Serras Hotel Barcelona,Hotel,"Passeig de Colom, 9, 08002 Barcelona",Barcelona,Spain,41.3801834,2.1807974,4.6,687.0,19.0,15.0,23.0,116.0,514.0,
The Vegan Corner,Vegan restaurant,"Carrer d'Ataülf, 5, 08002 Barcelona",Barcelona,Spain,41.3814111,2.1784479,4.7,222.0,6.0,3.0,7.0,26.0,180.0,
Bar Oviso,Restaurant,"Carrer de n'Arai, 5, 08002 Barcelona",Barcelona,Spain,41.3807007,2.1771238,4.4,1450.0,49.0,39.0,125.0,371.0,866.0,€
Wok To Walk,Asian restaurant,"Mercado Boquería, La Rambla, 95, 08002 Barcelona",Barcelona,Spain,41.382358,2.1719295,4.3,1762.0,73.0,45.0,139.0,442.0,1063.0,€
Olívia Plaza Hotel,Hotel,"Pl. de Catalunya, 19, 08002 Barcelona",Barcelona,Spain,41.3861894,2.1711552,4.4,902.0,37.0,17.0,54.0,213.0,581.0,
Santagloria Coffee & Bakery,Cafe,"C. del Call, 26, 08002 Barcelona",Barcelona,Spain,41.3823571,2.1763947,4.4,123.0,12.0,3.0,3.0,7.0,98.0,
ARTiSA Barcelona,Coffee shop,"Carrer de Colom, 2, 08002 Barcelona",Barcelona,Spain,41.3797283,2.1748844,4.4,2258.0,78.0,62.0,159.0,566.0,1393.0,€€
Forns del Pi,Coffee shop,"Carrer de Ferran, 12, 08002 Barcelona",Barcelona,Spain,41.3807611,2.1748,4.2,913.0,53.0,26.0,101.0,269.0,464.0,€
Craft Barcelona,Restaurant,"Carrer del Paradís, 4, 08002 Barcelona",Barcelona,Spain,41.383132,2.177017,4.4,2215.0,49.0,30.0,179.0,620.0,1337.0,€€
Zona d'Ombra,Wine bar,"C/ de Salomó ben Adret, 12, 08002 Barcelona",Barcelona,Spain,41.382824,2.175636,4.2,474.0,38.0,16.0,39.0,101.0,280.0,€€
Ruma's Coffee,Coffee shop,"Carrer dels Escudellers, 11, 08002 Barcelona",Barcelona,Spain,41.3792647,2.1759855,4.6,230.0,8.0,6.0,8.0,21.0,187.0,€€
Yurbban Trafalgar,Restaurant,"Carrer de Trafalgar, 30, 08010 Barcelona",Barcelona,Spain,41.3889291,2.1760066,4.5,835.0,16.0,20.0,33.0,188.0,578.0,
Tast-ller,Restaurant,"C. de Viladomat, 137, 08015 Barcelona",Barcelona,Spain,41.3810273,2.1551833,4.6,175.0,6.0,2.0,8.0,22.0,137.0,€€€
